{"matches": [{"ip_str": "101.200.176.99", "port": 11211, "location": {"city": null, "region_code": null, "area_code": null, "longitude": 113.72660000000002, "country_code3": "CHN", "latitude": 34.77250000000001, "postal_code": null, "dma_code": null, "country_code": "CN", "country_name": "China"}}, {"ip_str": "212.32.241.180", "port": 11211, "location": {"city": null, "region_code": null, "area_code": null, "longitude": 4.899499999999989, "country_code3": "NLD", "latitude": 52.38239999999999, "postal_code": null, "dma_code": null, "country_code": "NL", "country_name": "Netherlands"}}, {"ip_str": "154.92.163.111", "port": 11211, "location": {"city": null, "region_code": null, "area_code": null, "longitude": -97.822, "country_code3": "USA", "latitude": 37.751000000000005, "postal_code": null, "dma_code": null, "country_code": "US", "country_name": "United States"}}, {"ip_str": "66.228.53.18", "port": 11211, "location": {"city": "Dallas", "region_code": "TX", "area_code": 214, "longitude": -96.8217, "country_code3": "USA", "latitude": 32.778699999999986, "postal_code": "75270", "dma_code": 623, "country_code": "US", "country_name": "United States"}}, {"ip_str": "23.225.239.159", "port": 11211, "location": {"city": "Los Angeles", "region_code": "CA", "area_code": 213, "longitude": -118.2641, "country_code3": "USA", "latitude": 34.04939999999999, "postal_code": "90014", "dma_code": 803, "country_code": "US", "country_name": "United States"}}, {"ip_str": "45.77.249.205", "port": 11211, "location": {"city": "Singapore", "region_code": "00", "area_code": null, "longitude": 103.85579999999999, "country_code3": "SGP", "latitude": 1.2931000000000097, "postal_code": null, "dma_code": null, "country_code": "SG", "country_name": "Singapore"}}, {"ip_str": "5.150.254.48", "port": 11211, "location": {"city": "Stockholm", "region_code": "26", "area_code": null, "longitude": 18.064899999999994, "country_code3": "SWE", "latitude": 59.33260000000001, "postal_code": "112 52", "dma_code": null, "country_code": "SE", "country_name": "Sweden"}}, {"ip_str": "89.33.247.23", "port": 11211, "location": {"city": null, "region_code": null, "area_code": null, "longitude": 25.0, "country_code3": "ROU", "latitude": 46.0, "postal_code": null, "dma_code": null, "country_code": "RO", "country_name": "Romania"}}, {"ip_str": "212.111.203.163", "port": 11211, "location": {"city": null, "region_code": null, "area_code": null, "longitude": 30.523300000000006, "country_code3": "UKR", "latitude": 50.44999999999999, "postal_code": null, "dma_code": null, "country_code": "UA", "country_name": "Ukraine"}}, {"ip_str": "221.13.79.130", "port": 11211, "location": {"city": null, "region_code": "14", "area_code": null, "longitude": 91.10000000000002, "country_code3": "CHN", "latitude": 29.650000000000006, "postal_code": null, "dma_code": null, "country_code": "CN", "country_name": "China"}}, {"ip_str": "93.104.215.243", "port": 11211, "location": {"city": null, "region_code": null, "area_code": null, "longitude": 9.491000000000014, "country_code3": "DEU", "latitude": 51.29929999999999, "postal_code": null, "dma_code": null, "country_code": "DE", "country_name": "Germany"}}, {"ip_str": "58.61.28.116", "port": 11211, "location": {"city": null, "region_code": "30", "area_code": null, "longitude": 113.25, "country_code3": "CHN", "latitude": 23.11670000000001, "postal_code": null, "dma_code": null, "country_code": "CN", "country_name": "China"}}, {"ip_str": "85.214.253.144", "port": 11211, "location": {"city": "Berlin", "region_code": "16", "area_code": null, "longitude": 13.400000000000006, "country_code3": "DEU", "latitude": 52.516699999999986, "postal_code": "12529", "dma_code": null, "country_code": "DE", "country_name": "Germany"}}, {"ip_str": "185.187.72.108", "port": 11211, "location": {"city": "Budapest", "region_code": "05", "area_code": null, "longitude": 19.08330000000001, "country_code3": "HUN", "latitude": 47.5, "postal_code": "1012", "dma_code": null, "country_code": "HU", "country_name": "Hungary"}}, {"ip_str": "13.125.186.96", "port": 11211, "location": {"city": "Incheon", "region_code": "12", "area_code": null, "longitude": 126.73169999999999, "country_code3": "KOR", "latitude": 37.453599999999994, "postal_code": null, "dma_code": null, "country_code": "KR", "country_name": "Korea, Republic of"}}, {"ip_str": "61.14.232.163", "port": 11211, "location": {"city": "Ho Chi Minh", "region_code": "00", "area_code": null, "longitude": 106.62959999999998, "country_code3": "VNM", "latitude": 10.823000000000008, "postal_code": null, "dma_code": null, "country_code": "VN", "country_name": "Vietnam"}}, {"ip_str": "173.164.61.245", "port": 11211, "location": {"city": null, "region_code": null, "area_code": null, "longitude": -97.822, "country_code3": "USA", "latitude": 37.751000000000005, "postal_code": null, "dma_code": null, "country_code": "US", "country_name": "United States"}}, {"ip_str": "217.23.156.11", "port": 11211, "location": {"city": null, "region_code": null, "area_code": null, "longitude": 37.60679999999999, "country_code3": "RUS", "latitude": 55.73859999999999, "postal_code": null, "dma_code": null, "country_code": "RU", "country_name": "Russian Federation"}}, {"ip_str": "66.39.102.82", "port": 11211, "location": {"city": "Pittsburgh", "region_code": "PA", "area_code": 412, "longitude": -79.9791, "country_code3": "USA", "latitude": 40.42230000000001, "postal_code": "15203", "dma_code": 508, "country_code": "US", "country_name": "United States"}}, {"ip_str": "178.175.144.130", "port": 11211, "location": {"city": "Chisinau", "region_code": "57", "area_code": null, "longitude": 28.857499999999987, "country_code3": "MDA", "latitude": 47.00559999999999, "postal_code": "2000", "dma_code": null, "country_code": "MD", "country_name": "Moldova, Republic of"}}, {"ip_str": "173.193.52.205", "port": 11211, "location": {"city": "Dallas", "region_code": "TX", "area_code": 214, "longitude": -96.8217, "country_code3": "USA", "latitude": 32.778699999999986, "postal_code": "75270", "dma_code": 623, "country_code": "US", "country_name": "United States"}}, {"ip_str": "120.76.121.168", "port": 11211, "location": {"city": null, "region_code": null, "area_code": null, "longitude": 113.72660000000002, "country_code3": "CHN", "latitude": 34.77250000000001, "postal_code": null, "dma_code": null, "country_code": "CN", "country_name": "China"}}, {"ip_str": "47.94.166.86", "port": 11211, "location": {"city": null, "region_code": null, "area_code": null, "longitude": 113.72660000000002, "country_code3": "CHN", "latitude": 34.77250000000001, "postal_code": null, "dma_code": null, "country_code": "CN", "country_name": "China"}}, {"ip_str": "54.92.29.156", "port": 11211, "location": {"city": "Tokyo", "region_code": "13", "area_code": null, "longitude": 139.7514, "country_code3": "JPN", "latitude": 35.685, "postal_code": "102-0082", "dma_code": null, "country_code": "JP", "country_name": "Japan"}}, {"ip_str": "119.29.72.187", "port": 11211, "location": {"city": "Beijing", "region_code": "22", "area_code": null, "longitude": 116.38889999999998, "country_code3": "CHN", "latitude": 39.928799999999995, "postal_code": null, "dma_code": null, "country_code": "CN", "country_name": "China"}}, {"ip_str": "116.236.231.208", "port": 11211, "location": {"city": null, "region_code": "23", "area_code": null, "longitude": 121.3997, "country_code3": "CHN", "latitude": 31.045600000000007, "postal_code": null, "dma_code": null, "country_code": "CN", "country_name": "China"}}, {"ip_str": "103.75.177.61", "port": 11211, "location": {"city": null, "region_code": null, "area_code": null, "longitude": 106.0, "country_code3": "VNM", "latitude": 16.0, "postal_code": null, "dma_code": null, "country_code": "VN", "country_name": "Vietnam"}}, {"ip_str": "207.180.208.11", "port": 11211, "location": {"city": null, "region_code": null, "area_code": null, "longitude": 9.491000000000014, "country_code3": "DEU", "latitude": 51.29929999999999, "postal_code": null, "dma_code": null, "country_code": "DE", "country_name": "Germany"}}, {"ip_str": "140.206.65.43", "port": 11211, "location": {"city": "Shanghai", "region_code": "23", "area_code": null, "longitude": 121.3997, "country_code3": "CHN", "latitude": 31.045600000000007, "postal_code": null, "dma_code": null, "country_code": "CN", "country_name": "China"}}, {"ip_str": "64.91.233.28", "port": 11211, "location": {"city": "Lansing", "region_code": "MI", "area_code": 517, "longitude": -84.636, "country_code3": "USA", "latitude": 42.72569999999999, "postal_code": "48917", "dma_code": 551, "country_code": "US", "country_name": "United States"}}, {"ip_str": "123.56.142.42", "port": 11211, "location": {"city": null, "region_code": null, "area_code": null, "longitude": 113.72660000000002, "country_code3": "CHN", "latitude": 34.77250000000001, "postal_code": null, "dma_code": null, "country_code": "CN", "country_name": "China"}}, {"ip_str": "185.22.235.11", "port": 11211, "location": {"city": null, "region_code": null, "area_code": null, "longitude": 37.60679999999999, "country_code3": "RUS", "latitude": 55.73859999999999, "postal_code": null, "dma_code": null, "country_code": "RU", "country_name": "Russian Federation"}}, {"ip_str": "119.29.135.222", "port": 11211, "location": {"city": "Beijing", "region_code": "22", "area_code": null, "longitude": 116.38889999999998, "country_code3": "CHN", "latitude": 39.928799999999995, "postal_code": null, "dma_code": null, "country_code": "CN", "country_name": "China"}}, {"ip_str": "207.148.9.7", "port": 11211, "location": {"city": "Elk Grove Village", "region_code": "IL", "area_code": 847, "longitude": -87.9901, "country_code3": "USA", "latitude": 42.01519999999999, "postal_code": "60007", "dma_code": 602, "country_code": "US", "country_name": "United States"}}, {"ip_str": "130.215.29.111", "port": 11211, "location": {"city": "Worcester", "region_code": "MA", "area_code": 508, "longitude": -71.8292, "country_code3": "USA", "latitude": 42.28569999999999, "postal_code": "01609", "dma_code": 506, "country_code": "US", "country_name": "United States"}}, {"ip_str": "118.190.9.159", "port": 11211, "location": {"city": null, "region_code": null, "area_code": null, "longitude": 113.72660000000002, "country_code3": "CHN", "latitude": 34.77250000000001, "postal_code": null, "dma_code": null, "country_code": "CN", "country_name": "China"}}, {"ip_str": "111.198.29.45", "port": 11211, "location": {"city": "Beijing", "region_code": "22", "area_code": null, "longitude": 116.38889999999998, "country_code3": "CHN", "latitude": 39.928799999999995, "postal_code": null, "dma_code": null, "country_code": "CN", "country_name": "China"}}, {"ip_str": "116.77.76.67", "port": 11211, "location": {"city": "Shenzhen", "region_code": "30", "area_code": null, "longitude": 114.13330000000002, "country_code3": "CHN", "latitude": 22.533299999999997, "postal_code": null, "dma_code": null, "country_code": "CN", "country_name": "China"}}, {"ip_str": "213.136.76.22", "port": 11211, "location": {"city": null, "region_code": null, "area_code": null, "longitude": 9.491000000000014, "country_code3": "DEU", "latitude": 51.29929999999999, "postal_code": null, "dma_code": null, "country_code": "DE", "country_name": "Germany"}}, {"ip_str": "199.119.141.131", "port": 11211, "location": {"city": "New York", "region_code": "NY", "area_code": 212, "longitude": -73.968, "country_code3": "USA", "latitude": 40.75880000000001, "postal_code": "10022", "dma_code": 501, "country_code": "US", "country_name": "United States"}}, {"ip_str": "198.11.179.235", "port": 11211, "location": {"city": "San Mateo", "region_code": "CA", "area_code": 650, "longitude": -122.3558, "country_code3": "USA", "latitude": 37.52600000000001, "postal_code": "94402", "dma_code": 807, "country_code": "US", "country_name": "United States"}}, {"ip_str": "154.210.28.32", "port": 11211, "location": {"city": "Los Angeles", "region_code": "CA", "area_code": 310, "longitude": -118.244, "country_code3": "USA", "latitude": 34.05439999999999, "postal_code": "90009", "dma_code": 803, "country_code": "US", "country_name": "United States"}}, {"ip_str": "51.255.134.234", "port": 11211, "location": {"city": null, "region_code": null, "area_code": null, "longitude": 2.3386999999999887, "country_code3": "FRA", "latitude": 48.85820000000001, "postal_code": null, "dma_code": null, "country_code": "FR", "country_name": "France"}}, {"ip_str": "119.97.218.226", "port": 11211, "location": {"city": "Wuhan", "region_code": "12", "area_code": null, "longitude": 114.27339999999998, "country_code3": "CHN", "latitude": 30.580099999999987, "postal_code": null, "dma_code": null, "country_code": "CN", "country_name": "China"}}, {"ip_str": "139.196.103.229", "port": 11211, "location": {"city": null, "region_code": "22", "area_code": null, "longitude": 116.38830000000002, "country_code3": "CHN", "latitude": 39.9289, "postal_code": null, "dma_code": null, "country_code": "CN", "country_name": "China"}}, {"ip_str": "54.36.183.157", "port": 11211, "location": {"city": null, "region_code": null, "area_code": null, "longitude": 2.3386999999999887, "country_code3": "FRA", "latitude": 48.85820000000001, "postal_code": null, "dma_code": null, "country_code": "FR", "country_name": "France"}}, {"ip_str": "185.216.251.204", "port": 11211, "location": {"city": null, "region_code": null, "area_code": null, "longitude": 4.899499999999989, "country_code3": "NLD", "latitude": 52.38239999999999, "postal_code": null, "dma_code": null, "country_code": "NL", "country_name": "Netherlands"}}, {"ip_str": "142.4.118.243", "port": 11211, "location": {"city": null, "region_code": null, "area_code": null, "longitude": 113.72660000000002, "country_code3": "CHN", "latitude": 34.77250000000001, "postal_code": null, "dma_code": null, "country_code": "CN", "country_name": "China"}}, {"ip_str": "49.0.33.117", "port": 11211, "location": {"city": null, "region_code": null, "area_code": null, "longitude": 90.375, "country_code3": "BGD", "latitude": 23.69999999999999, "postal_code": null, "dma_code": null, "country_code": "BD", "country_name": "Bangladesh"}}, {"ip_str": "82.135.151.244", "port": 11211, "location": {"city": "Visaginas", "region_code": "60", "area_code": null, "longitude": 26.41669999999999, "country_code3": "LTU", "latitude": 55.599999999999994, "postal_code": "31001", "dma_code": null, "country_code": "LT", "country_name": "Lithuania"}}, {"ip_str": "97.74.238.80", "port": 11211, "location": {"city": "Scottsdale", "region_code": "AZ", "area_code": 480, "longitude": -111.8906, "country_code3": "USA", "latitude": 33.61189999999999, "postal_code": "85260", "dma_code": 753, "country_code": "US", "country_name": "United States"}}, {"ip_str": "219.234.139.7", "port": 11211, "location": {"city": null, "region_code": "22", "area_code": null, "longitude": 116.38830000000002, "country_code3": "CHN", "latitude": 39.9289, "postal_code": null, "dma_code": null, "country_code": "CN", "country_name": "China"}}, {"ip_str": "99.192.136.169", "port": 11211, "location": {"city": "Franklin", "region_code": "MI", "area_code": 248, "longitude": -83.263, "country_code3": "USA", "latitude": 42.518100000000004, "postal_code": "48025", "dma_code": 505, "country_code": "US", "country_name": "United States"}}, {"ip_str": "176.31.100.132", "port": 11211, "location": {"city": null, "region_code": null, "area_code": null, "longitude": 2.3386999999999887, "country_code3": "FRA", "latitude": 48.85820000000001, "postal_code": null, "dma_code": null, "country_code": "FR", "country_name": "France"}}, {"ip_str": "54.210.45.125", "port": 11211, "location": {"city": "Ashburn", "region_code": "VA", "area_code": 703, "longitude": -77.4728, "country_code3": "USA", "latitude": 39.048100000000005, "postal_code": "20149", "dma_code": 511, "country_code": "US", "country_name": "United States"}}, {"ip_str": "142.4.119.65", "port": 11211, "location": {"city": null, "region_code": null, "area_code": null, "longitude": 113.72660000000002, "country_code3": "CHN", "latitude": 34.77250000000001, "postal_code": null, "dma_code": null, "country_code": "CN", "country_name": "China"}}, {"ip_str": "82.146.60.54", "port": 11211, "location": {"city": null, "region_code": null, "area_code": null, "longitude": 37.60679999999999, "country_code3": "RUS", "latitude": 55.73859999999999, "postal_code": null, "dma_code": null, "country_code": "RU", "country_name": "Russian Federation"}}, {"ip_str": "104.238.156.212", "port": 11211, "location": {"city": "Seattle", "region_code": "WA", "area_code": 206, "longitude": -122.348, "country_code3": "USA", "latitude": 47.61449999999999, "postal_code": "98121", "dma_code": 819, "country_code": "US", "country_name": "United States"}}, {"ip_str": "108.245.114.90", "port": 11211, "location": {"city": null, "region_code": null, "area_code": null, "longitude": -97.822, "country_code3": "USA", "latitude": 37.751000000000005, "postal_code": null, "dma_code": null, "country_code": "US", "country_name": "United States"}}, {"ip_str": "14.152.78.229", "port": 11211, "location": {"city": "Guangzhou", "region_code": "30", "area_code": null, "longitude": 113.25, "country_code3": "CHN", "latitude": 23.11670000000001, "postal_code": null, "dma_code": null, "country_code": "CN", "country_name": "China"}}, {"ip_str": "83.167.230.107", "port": 11211, "location": {"city": null, "region_code": null, "area_code": null, "longitude": 14.411200000000008, "country_code3": "CZE", "latitude": 50.0848, "postal_code": null, "dma_code": null, "country_code": "CZ", "country_name": "Czech Republic"}}, {"ip_str": "87.249.208.46", "port": 11211, "location": {"city": "Chelyabinsk", "region_code": "13", "area_code": null, "longitude": 61.4297, "country_code3": "RUS", "latitude": 55.15440000000001, "postal_code": "454000", "dma_code": null, "country_code": "RU", "country_name": "Russian Federation"}}, {"ip_str": "47.110.133.78", "port": 11211, "location": {"city": null, "region_code": null, "area_code": null, "longitude": 113.72660000000002, "country_code3": "CHN", "latitude": 34.77250000000001, "postal_code": null, "dma_code": null, "country_code": "CN", "country_name": "China"}}, {"ip_str": "123.57.0.53", "port": 11211, "location": {"city": null, "region_code": null, "area_code": null, "longitude": 113.72660000000002, "country_code3": "CHN", "latitude": 34.77250000000001, "postal_code": null, "dma_code": null, "country_code": "CN", "country_name": "China"}}, {"ip_str": "74.208.68.144", "port": 11211, "location": {"city": "Wayne", "region_code": "PA", "area_code": 610, "longitude": -75.4083, "country_code3": "USA", "latitude": 40.0548, "postal_code": "19087", "dma_code": 504, "country_code": "US", "country_name": "United States"}}, {"ip_str": "178.18.196.174", "port": 11211, "location": {"city": null, "region_code": "07", "area_code": null, "longitude": 30.695600000000013, "country_code3": "TUR", "latitude": 36.90809999999999, "postal_code": null, "dma_code": null, "country_code": "TR", "country_name": "Turkey"}}, {"ip_str": "146.185.253.65", "port": 11211, "location": {"city": "Dronten", "region_code": "16", "area_code": null, "longitude": 5.700999999999993, "country_code3": "NLD", "latitude": 52.53790000000001, "postal_code": "8253", "dma_code": null, "country_code": "NL", "country_name": "Netherlands"}}, {"ip_str": "101.226.241.51", "port": 11211, "location": {"city": null, "region_code": "23", "area_code": null, "longitude": 121.3997, "country_code3": "CHN", "latitude": 31.045600000000007, "postal_code": null, "dma_code": null, "country_code": "CN", "country_name": "China"}}, {"ip_str": "103.118.157.45", "port": 11211, "location": {"city": null, "region_code": null, "area_code": null, "longitude": 77.0, "country_code3": "IND", "latitude": 20.0, "postal_code": null, "dma_code": null, "country_code": "IN", "country_name": "India"}}, {"ip_str": "213.159.213.137", "port": 11211, "location": {"city": null, "region_code": null, "area_code": null, "longitude": 37.60679999999999, "country_code3": "RUS", "latitude": 55.73859999999999, "postal_code": null, "dma_code": null, "country_code": "RU", "country_name": "Russian Federation"}}, {"ip_str": "74.63.209.38", "port": 11211, "location": {"city": "Dallas", "region_code": "TX", "area_code": 214, "longitude": -96.8028, "country_code3": "USA", "latitude": 32.7791, "postal_code": "75202", "dma_code": 623, "country_code": "US", "country_name": "United States"}}, {"ip_str": "211.154.249.35", "port": 11211, "location": {"city": null, "region_code": "22", "area_code": null, "longitude": 116.38830000000002, "country_code3": "CHN", "latitude": 39.9289, "postal_code": null, "dma_code": null, "country_code": "CN", "country_name": "China"}}, {"ip_str": "122.114.189.63", "port": 11211, "location": {"city": null, "region_code": null, "area_code": null, "longitude": 113.72660000000002, "country_code3": "CHN", "latitude": 34.77250000000001, "postal_code": null, "dma_code": null, "country_code": "CN", "country_name": "China"}}, {"ip_str": "120.25.229.151", "port": 11211, "location": {"city": null, "region_code": null, "area_code": null, "longitude": 113.72660000000002, "country_code3": "CHN", "latitude": 34.77250000000001, "postal_code": null, "dma_code": null, "country_code": "CN", "country_name": "China"}}, {"ip_str": "47.96.41.121", "port": 11211, "location": {"city": null, "region_code": null, "area_code": null, "longitude": 113.72660000000002, "country_code3": "CHN", "latitude": 34.77250000000001, "postal_code": null, "dma_code": null, "country_code": "CN", "country_name": "China"}}, {"ip_str": "41.141.250.159", "port": 11211, "location": {"city": "Bouznika", "region_code": "50", "area_code": null, "longitude": -7.159699999999987, "country_code3": "MAR", "latitude": 33.7894, "postal_code": null, "dma_code": null, "country_code": "MA", "country_name": "Morocco"}}, {"ip_str": "95.130.171.21", "port": 11211, "location": {"city": "Bursa", "region_code": "16", "area_code": null, "longitude": 29.098299999999995, "country_code3": "TUR", "latitude": 40.27189999999999, "postal_code": "16245", "dma_code": null, "country_code": "TR", "country_name": "Turkey"}}, {"ip_str": "119.29.21.104", "port": 11211, "location": {"city": "Beijing", "region_code": "22", "area_code": null, "longitude": 116.38889999999998, "country_code3": "CHN", "latitude": 39.928799999999995, "postal_code": null, "dma_code": null, "country_code": "CN", "country_name": "China"}}, {"ip_str": "117.41.235.24", "port": 11211, "location": {"city": null, "region_code": "03", "area_code": null, "longitude": 115.93329999999997, "country_code3": "CHN", "latitude": 28.55000000000001, "postal_code": null, "dma_code": null, "country_code": "CN", "country_name": "China"}}, {"ip_str": "120.77.6.131", "port": 11211, "location": {"city": null, "region_code": null, "area_code": null, "longitude": 113.72660000000002, "country_code3": "CHN", "latitude": 34.77250000000001, "postal_code": null, "dma_code": null, "country_code": "CN", "country_name": "China"}}, {"ip_str": "69.85.84.142", "port": 11211, "location": {"city": "Rock Hill", "region_code": "SC", "area_code": 803, "longitude": -81.0237, "country_code3": "USA", "latitude": 34.88890000000001, "postal_code": "29730", "dma_code": 517, "country_code": "US", "country_name": "United States"}}, {"ip_str": "217.20.131.186", "port": 11211, "location": {"city": "Budapest", "region_code": "05", "area_code": null, "longitude": 19.08330000000001, "country_code3": "HUN", "latitude": 47.5, "postal_code": "1033", "dma_code": null, "country_code": "HU", "country_name": "Hungary"}}, {"ip_str": "118.89.49.94", "port": 11211, "location": {"city": "Beijing", "region_code": "22", "area_code": null, "longitude": 116.38889999999998, "country_code3": "CHN", "latitude": 39.928799999999995, "postal_code": null, "dma_code": null, "country_code": "CN", "country_name": "China"}}, {"ip_str": "47.92.79.132", "port": 11211, "location": {"city": null, "region_code": null, "area_code": null, "longitude": 113.72660000000002, "country_code3": "CHN", "latitude": 34.77250000000001, "postal_code": null, "dma_code": null, "country_code": "CN", "country_name": "China"}}, {"ip_str": "120.25.59.14", "port": 11211, "location": {"city": null, "region_code": null, "area_code": null, "longitude": 113.72660000000002, "country_code3": "CHN", "latitude": 34.77250000000001, "postal_code": null, "dma_code": null, "country_code": "CN", "country_name": "China"}}, {"ip_str": "96.44.179.245", "port": 11211, "location": {"city": "Los Angeles", "region_code": "CA", "area_code": 213, "longitude": -118.2641, "country_code3": "USA", "latitude": 34.04939999999999, "postal_code": "90014", "dma_code": 803, "country_code": "US", "country_name": "United States"}}, {"ip_str": "187.63.160.8", "port": 11211, "location": {"city": "Caxias Do Sul", "region_code": "23", "area_code": null, "longitude": -51.178500000000014, "country_code3": "BRA", "latitude": -29.168900000000008, "postal_code": null, "dma_code": null, "country_code": "BR", "country_name": "Brazil"}}, {"ip_str": "63.33.248.199", "port": 11211, "location": {"city": "Dublin", "region_code": "07", "area_code": null, "longitude": -6.248899999999992, "country_code3": "IRL", "latitude": 53.3331, "postal_code": "D02", "dma_code": null, "country_code": "IE", "country_name": "Ireland"}}, {"ip_str": "60.205.125.187", "port": 11211, "location": {"city": null, "region_code": null, "area_code": null, "longitude": 113.72660000000002, "country_code3": "CHN", "latitude": 34.77250000000001, "postal_code": null, "dma_code": null, "country_code": "CN", "country_name": "China"}}, {"ip_str": "154.210.47.189", "port": 11211, "location": {"city": "Los Angeles", "region_code": "CA", "area_code": 310, "longitude": -118.244, "country_code3": "USA", "latitude": 34.05439999999999, "postal_code": "90009", "dma_code": 803, "country_code": "US", "country_name": "United States"}}, {"ip_str": "93.95.59.213", "port": 11211, "location": {"city": "Givry", "region_code": "A1", "area_code": null, "longitude": 4.74260000000001, "country_code3": "FRA", "latitude": 46.78200000000001, "postal_code": "71640", "dma_code": null, "country_code": "FR", "country_name": "France"}}, {"ip_str": "91.199.106.154", "port": 11211, "location": {"city": null, "region_code": null, "area_code": null, "longitude": 30.523300000000006, "country_code3": "UKR", "latitude": 50.44999999999999, "postal_code": null, "dma_code": null, "country_code": "UA", "country_name": "Ukraine"}}, {"ip_str": "35.187.204.249", "port": 11211, "location": {"city": "Mountain View", "region_code": "CA", "area_code": 650, "longitude": -122.0574, "country_code3": "USA", "latitude": 37.41919999999999, "postal_code": "94043", "dma_code": 807, "country_code": "US", "country_name": "United States"}}, {"ip_str": "157.7.133.215", "port": 11211, "location": {"city": "Tokyo", "region_code": "40", "area_code": null, "longitude": 139.7514, "country_code3": "JPN", "latitude": 35.685, "postal_code": "102-0082", "dma_code": null, "country_code": "JP", "country_name": "Japan"}}, {"ip_str": "159.253.47.130", "port": 11211, "location": {"city": null, "region_code": null, "area_code": null, "longitude": 28.994799999999998, "country_code3": "TUR", "latitude": 41.0214, "postal_code": null, "dma_code": null, "country_code": "TR", "country_name": "Turkey"}}, {"ip_str": "185.20.226.26", "port": 11211, "location": {"city": null, "region_code": null, "area_code": null, "longitude": 37.60679999999999, "country_code3": "RUS", "latitude": 55.73859999999999, "postal_code": null, "dma_code": null, "country_code": "RU", "country_name": "Russian Federation"}}, {"ip_str": "80.64.136.23", "port": 11211, "location": {"city": null, "region_code": null, "area_code": null, "longitude": 16.36670000000001, "country_code3": "AUT", "latitude": 48.19999999999999, "postal_code": null, "dma_code": null, "country_code": "AT", "country_name": "Austria"}}, {"ip_str": "202.90.158.139", "port": 11211, "location": {"city": "Caloocan", "region_code": "B4", "area_code": null, "longitude": 120.98259999999999, "country_code3": "PHL", "latitude": 14.649200000000008, "postal_code": "1106", "dma_code": null, "country_code": "PH", "country_name": "Philippines"}}, {"ip_str": "47.94.238.30", "port": 11211, "location": {"city": null, "region_code": null, "area_code": null, "longitude": 113.72660000000002, "country_code3": "CHN", "latitude": 34.77250000000001, "postal_code": null, "dma_code": null, "country_code": "CN", "country_name": "China"}}, {"ip_str": "89.249.132.6", "port": 11211, "location": {"city": null, "region_code": null, "area_code": null, "longitude": 37.60679999999999, "country_code3": "RUS", "latitude": 55.73859999999999, "postal_code": null, "dma_code": null, "country_code": "RU", "country_name": "Russian Federation"}}, {"ip_str": "196.61.237.10", "port": 11211, "location": {"city": null, "region_code": null, "area_code": null, "longitude": -5.0, "country_code3": "MAR", "latitude": 32.0, "postal_code": null, "dma_code": null, "country_code": "MA", "country_name": "Morocco"}}, {"ip_str": "103.90.228.164", "port": 11211, "location": {"city": null, "region_code": null, "area_code": null, "longitude": 106.0, "country_code3": "VNM", "latitude": 16.0, "postal_code": null, "dma_code": null, "country_code": "VN", "country_name": "Vietnam"}}, {"ip_str": "69.169.88.85", "port": 11211, "location": {"city": null, "region_code": null, "area_code": null, "longitude": -97.822, "country_code3": "USA", "latitude": 37.751000000000005, "postal_code": null, "dma_code": null, "country_code": "US", "country_name": "United States"}}, {"ip_str": "212.71.239.115", "port": 11211, "location": {"city": "London", "region_code": "H9", "area_code": null, "longitude": -0.09309999999999263, "country_code3": "GBR", "latitude": 51.51419999999999, "postal_code": "EC2V", "dma_code": null, "country_code": "GB", "country_name": "United Kingdom"}}, {"ip_str": "39.106.39.63", "port": 11211, "location": {"city": null, "region_code": null, "area_code": null, "longitude": 113.72660000000002, "country_code3": "CHN", "latitude": 34.77250000000001, "postal_code": null, "dma_code": null, "country_code": "CN", "country_name": "China"}}, {"ip_str": "122.180.80.207", "port": 11211, "location": {"city": null, "region_code": null, "area_code": null, "longitude": 77.0, "country_code3": "IND", "latitude": 20.0, "postal_code": null, "dma_code": null, "country_code": "IN", "country_name": "India"}}, {"ip_str": "108.160.146.27", "port": 11211, "location": {"city": "Dallas", "region_code": "TX", "area_code": 214, "longitude": -96.8705, "country_code3": "USA", "latitude": 32.81479999999999, "postal_code": "75247", "dma_code": 623, "country_code": "US", "country_name": "United States"}}, {"ip_str": "173.249.18.54", "port": 11211, "location": {"city": null, "region_code": null, "area_code": null, "longitude": 9.491000000000014, "country_code3": "DEU", "latitude": 51.29929999999999, "postal_code": null, "dma_code": null, "country_code": "DE", "country_name": "Germany"}}, {"ip_str": "69.167.164.94", "port": 11211, "location": {"city": "Lansing", "region_code": "MI", "area_code": 517, "longitude": -84.636, "country_code3": "USA", "latitude": 42.72569999999999, "postal_code": "48917", "dma_code": 551, "country_code": "US", "country_name": "United States"}}, {"ip_str": "47.96.226.53", "port": 11211, "location": {"city": null, "region_code": null, "area_code": null, "longitude": 113.72660000000002, "country_code3": "CHN", "latitude": 34.77250000000001, "postal_code": null, "dma_code": null, "country_code": "CN", "country_name": "China"}}, {"ip_str": "47.75.241.161", "port": 11211, "location": {"city": null, "region_code": null, "area_code": null, "longitude": 113.72660000000002, "country_code3": "CHN", "latitude": 34.77250000000001, "postal_code": null, "dma_code": null, "country_code": "CN", "country_name": "China"}}, {"ip_str": "148.70.11.159", "port": 11211, "location": {"city": null, "region_code": "22", "area_code": null, "longitude": 116.38830000000002, "country_code3": "CHN", "latitude": 39.9289, "postal_code": null, "dma_code": null, "country_code": "CN", "country_name": "China"}}, {"ip_str": "193.34.145.73", "port": 11211, "location": {"city": "Bad Krozingen", "region_code": "01", "area_code": null, "longitude": 7.699999999999989, "country_code3": "DEU", "latitude": 47.91669999999999, "postal_code": "79189", "dma_code": null, "country_code": "DE", "country_name": "Germany"}}, {"ip_str": "18.206.123.99", "port": 11211, "location": {"city": "Ashburn", "region_code": "VA", "area_code": 703, "longitude": -77.4728, "country_code3": "USA", "latitude": 39.048100000000005, "postal_code": "20149", "dma_code": 511, "country_code": "US", "country_name": "United States"}}, {"ip_str": "45.114.94.138", "port": 11211, "location": {"city": null, "region_code": null, "area_code": null, "longitude": 114.16669999999999, "country_code3": "HKG", "latitude": 22.25, "postal_code": null, "dma_code": null, "country_code": "HK", "country_name": "Hong Kong"}}, {"ip_str": "108.187.116.227", "port": 11211, "location": {"city": null, "region_code": null, "area_code": null, "longitude": -97.822, "country_code3": "USA", "latitude": 37.751000000000005, "postal_code": null, "dma_code": null, "country_code": "US", "country_name": "United States"}}, {"ip_str": "99.192.231.219", "port": 11211, "location": {"city": "Franklin", "region_code": "MI", "area_code": 248, "longitude": -83.263, "country_code3": "USA", "latitude": 42.518100000000004, "postal_code": "48025", "dma_code": 505, "country_code": "US", "country_name": "United States"}}, {"ip_str": "173.208.209.50", "port": 11211, "location": {"city": "Kansas City", "region_code": "MO", "area_code": 816, "longitude": -94.566, "country_code3": "USA", "latitude": 39.10679999999999, "postal_code": "64106", "dma_code": 616, "country_code": "US", "country_name": "United States"}}, {"ip_str": "5.189.147.161", "port": 11211, "location": {"city": null, "region_code": null, "area_code": null, "longitude": 9.491000000000014, "country_code3": "DEU", "latitude": 51.29929999999999, "postal_code": null, "dma_code": null, "country_code": "DE", "country_name": "Germany"}}, {"ip_str": "114.215.124.207", "port": 11211, "location": {"city": null, "region_code": null, "area_code": null, "longitude": 113.72660000000002, "country_code3": "CHN", "latitude": 34.77250000000001, "postal_code": null, "dma_code": null, "country_code": "CN", "country_name": "China"}}, {"ip_str": "132.232.255.36", "port": 11211, "location": {"city": null, "region_code": "22", "area_code": null, "longitude": 116.38830000000002, "country_code3": "CHN", "latitude": 39.9289, "postal_code": null, "dma_code": null, "country_code": "CN", "country_name": "China"}}, {"ip_str": "176.58.115.82", "port": 11211, "location": {"city": "London", "region_code": "H9", "area_code": null, "longitude": -0.09309999999999263, "country_code3": "GBR", "latitude": 51.51419999999999, "postal_code": "EC2V", "dma_code": null, "country_code": "GB", "country_name": "United Kingdom"}}, {"ip_str": "54.37.74.96", "port": 11211, "location": {"city": null, "region_code": null, "area_code": null, "longitude": 9.491000000000014, "country_code3": "DEU", "latitude": 51.29929999999999, "postal_code": null, "dma_code": null, "country_code": "DE", "country_name": "Germany"}}, {"ip_str": "173.236.125.3", "port": 11211, "location": {"city": "Chicago", "region_code": "IL", "area_code": 312, "longitude": -87.6272, "country_code3": "USA", "latitude": 41.8776, "postal_code": "60604", "dma_code": 602, "country_code": "US", "country_name": "United States"}}, {"ip_str": "120.26.37.243", "port": 11211, "location": {"city": null, "region_code": null, "area_code": null, "longitude": 113.72660000000002, "country_code3": "CHN", "latitude": 34.77250000000001, "postal_code": null, "dma_code": null, "country_code": "CN", "country_name": "China"}}, {"ip_str": "154.92.163.115", "port": 11211, "location": {"city": null, "region_code": null, "area_code": null, "longitude": -97.822, "country_code3": "USA", "latitude": 37.751000000000005, "postal_code": null, "dma_code": null, "country_code": "US", "country_name": "United States"}}, {"ip_str": "37.48.64.71", "port": 11211, "location": {"city": null, "region_code": null, "area_code": null, "longitude": 4.899499999999989, "country_code3": "NLD", "latitude": 52.38239999999999, "postal_code": null, "dma_code": null, "country_code": "NL", "country_name": "Netherlands"}}, {"ip_str": "50.7.130.22", "port": 11211, "location": {"city": "Amsterdam", "region_code": "07", "area_code": null, "longitude": 4.941699999999997, "country_code3": "NLD", "latitude": 52.308400000000006, "postal_code": "1101", "dma_code": null, "country_code": "NL", "country_name": "Netherlands"}}, {"ip_str": "198.200.41.99", "port": 11211, "location": {"city": null, "region_code": null, "area_code": null, "longitude": 113.72660000000002, "country_code3": "CHN", "latitude": 34.77250000000001, "postal_code": null, "dma_code": null, "country_code": "CN", "country_name": "China"}}, {"ip_str": "45.76.146.153", "port": 11211, "location": {"city": "Singapore", "region_code": "00", "area_code": null, "longitude": 103.85579999999999, "country_code3": "SGP", "latitude": 1.2931000000000097, "postal_code": null, "dma_code": null, "country_code": "SG", "country_name": "Singapore"}}, {"ip_str": "23.224.115.203", "port": 11211, "location": {"city": "Los Angeles", "region_code": "CA", "area_code": 213, "longitude": -118.2641, "country_code3": "USA", "latitude": 34.04939999999999, "postal_code": "90014", "dma_code": 803, "country_code": "US", "country_name": "United States"}}, {"ip_str": "120.25.91.21", "port": 11211, "location": {"city": null, "region_code": null, "area_code": null, "longitude": 113.72660000000002, "country_code3": "CHN", "latitude": 34.77250000000001, "postal_code": null, "dma_code": null, "country_code": "CN", "country_name": "China"}}, {"ip_str": "92.222.136.233", "port": 11211, "location": {"city": "Paris", "region_code": "A8", "area_code": null, "longitude": 2.329199999999986, "country_code3": "FRA", "latitude": 48.86279999999999, "postal_code": "75001", "dma_code": null, "country_code": "FR", "country_name": "France"}}, {"ip_str": "87.237.202.111", "port": 11211, "location": {"city": null, "region_code": null, "area_code": null, "longitude": 21.0, "country_code3": "SRB", "latitude": 44.0, "postal_code": null, "dma_code": null, "country_code": "RS", "country_name": "Serbia"}}, {"ip_str": "101.251.192.58", "port": 11211, "location": {"city": null, "region_code": "22", "area_code": null, "longitude": 116.38830000000002, "country_code3": "CHN", "latitude": 39.9289, "postal_code": null, "dma_code": null, "country_code": "CN", "country_name": "China"}}, {"ip_str": "108.187.116.129", "port": 11211, "location": {"city": null, "region_code": null, "area_code": null, "longitude": -97.822, "country_code3": "USA", "latitude": 37.751000000000005, "postal_code": null, "dma_code": null, "country_code": "US", "country_name": "United States"}}, {"ip_str": "104.251.222.101", "port": 11211, "location": {"city": null, "region_code": null, "area_code": null, "longitude": -97.822, "country_code3": "USA", "latitude": 37.751000000000005, "postal_code": null, "dma_code": null, "country_code": "US", "country_name": "United States"}}, {"ip_str": "37.187.102.165", "port": 11211, "location": {"city": null, "region_code": null, "area_code": null, "longitude": 2.3386999999999887, "country_code3": "FRA", "latitude": 48.85820000000001, "postal_code": null, "dma_code": null, "country_code": "FR", "country_name": "France"}}, {"ip_str": "139.196.4.173", "port": 11211, "location": {"city": null, "region_code": "22", "area_code": null, "longitude": 116.38830000000002, "country_code3": "CHN", "latitude": 39.9289, "postal_code": null, "dma_code": null, "country_code": "CN", "country_name": "China"}}, {"ip_str": "117.122.214.209", "port": 11211, "location": {"city": null, "region_code": "22", "area_code": null, "longitude": 116.38830000000002, "country_code3": "CHN", "latitude": 39.9289, "postal_code": null, "dma_code": null, "country_code": "CN", "country_name": "China"}}, {"ip_str": "103.80.238.142", "port": 11211, "location": {"city": "Jakarta", "region_code": "04", "area_code": null, "longitude": 106.82940000000002, "country_code3": "IDN", "latitude": -6.1743999999999915, "postal_code": null, "dma_code": null, "country_code": "ID", "country_name": "Indonesia"}}, {"ip_str": "172.246.64.213", "port": 11211, "location": {"city": "Los Angeles", "region_code": "CA", "area_code": 213, "longitude": -118.27799999999999, "country_code3": "USA", "latitude": 34.058400000000006, "postal_code": "90017", "dma_code": 803, "country_code": "US", "country_name": "United States"}}, {"ip_str": "172.246.64.240", "port": 11211, "location": {"city": "Los Angeles", "region_code": "CA", "area_code": 213, "longitude": -118.27799999999999, "country_code3": "USA", "latitude": 34.058400000000006, "postal_code": "90017", "dma_code": 803, "country_code": "US", "country_name": "United States"}}, {"ip_str": "103.74.175.169", "port": 11211, "location": {"city": null, "region_code": null, "area_code": null, "longitude": 114.16669999999999, "country_code3": "HKG", "latitude": 22.25, "postal_code": null, "dma_code": null, "country_code": "HK", "country_name": "Hong Kong"}}, {"ip_str": "173.254.255.252", "port": 11211, "location": {"city": "Dallas", "region_code": "TX", "area_code": 214, "longitude": -96.8705, "country_code3": "USA", "latitude": 32.81479999999999, "postal_code": "75247", "dma_code": 623, "country_code": "US", "country_name": "United States"}}, {"ip_str": "198.50.194.82", "port": 11211, "location": {"city": "Montr\u00e9al", "region_code": "QC", "area_code": null, "longitude": -73.5747, "country_code3": "CAN", "latitude": 45.50399999999999, "postal_code": "H3A", "dma_code": null, "country_code": "CA", "country_name": "Canada"}}, {"ip_str": "103.195.240.19", "port": 11211, "location": {"city": null, "region_code": null, "area_code": null, "longitude": 106.0, "country_code3": "VNM", "latitude": 16.0, "postal_code": null, "dma_code": null, "country_code": "VN", "country_name": "Vietnam"}}, {"ip_str": "47.94.57.219", "port": 11211, "location": {"city": null, "region_code": null, "area_code": null, "longitude": 113.72660000000002, "country_code3": "CHN", "latitude": 34.77250000000001, "postal_code": null, "dma_code": null, "country_code": "CN", "country_name": "China"}}, {"ip_str": "50.28.65.145", "port": 11211, "location": {"city": "Lansing", "region_code": "MI", "area_code": 517, "longitude": -84.5255, "country_code3": "USA", "latitude": 42.7422, "postal_code": "48912", "dma_code": 551, "country_code": "US", "country_name": "United States"}}, {"ip_str": "202.40.176.100", "port": 11211, "location": {"city": "Dhaka", "region_code": "81", "area_code": null, "longitude": 90.41120000000001, "country_code3": "BGD", "latitude": 23.729000000000013, "postal_code": "1000", "dma_code": null, "country_code": "BD", "country_name": "Bangladesh"}}, {"ip_str": "118.89.51.251", "port": 11211, "location": {"city": "Beijing", "region_code": "22", "area_code": null, "longitude": 116.38889999999998, "country_code3": "CHN", "latitude": 39.928799999999995, "postal_code": null, "dma_code": null, "country_code": "CN", "country_name": "China"}}, {"ip_str": "111.230.184.127", "port": 11211, "location": {"city": "Beijing", "region_code": "22", "area_code": null, "longitude": 116.38889999999998, "country_code3": "CHN", "latitude": 39.928799999999995, "postal_code": null, "dma_code": null, "country_code": "CN", "country_name": "China"}}, {"ip_str": "107.161.18.107", "port": 11211, "location": {"city": "Seattle", "region_code": "WA", "area_code": 206, "longitude": -122.348, "country_code3": "USA", "latitude": 47.61449999999999, "postal_code": "98121", "dma_code": 819, "country_code": "US", "country_name": "United States"}}, {"ip_str": "207.180.197.178", "port": 11211, "location": {"city": null, "region_code": null, "area_code": null, "longitude": 9.491000000000014, "country_code3": "DEU", "latitude": 51.29929999999999, "postal_code": null, "dma_code": null, "country_code": "DE", "country_name": "Germany"}}, {"ip_str": "172.93.102.149", "port": 11211, "location": {"city": "Miami", "region_code": "FL", "area_code": 305, "longitude": -80.2401, "country_code3": "USA", "latitude": 25.812399999999997, "postal_code": "33142", "dma_code": 528, "country_code": "US", "country_name": "United States"}}, {"ip_str": "185.219.135.80", "port": 11211, "location": {"city": null, "region_code": null, "area_code": null, "longitude": 28.994799999999998, "country_code3": "TUR", "latitude": 41.0214, "postal_code": null, "dma_code": null, "country_code": "TR", "country_name": "Turkey"}}, {"ip_str": "121.33.113.115", "port": 11211, "location": {"city": null, "region_code": "30", "area_code": null, "longitude": 113.25, "country_code3": "CHN", "latitude": 23.11670000000001, "postal_code": null, "dma_code": null, "country_code": "CN", "country_name": "China"}}, {"ip_str": "23.227.190.245", "port": 11211, "location": {"city": "Austin", "region_code": "TX", "area_code": 512, "longitude": -97.7227, "country_code3": "USA", "latitude": 30.310599999999994, "postal_code": "78751", "dma_code": 635, "country_code": "US", "country_name": "United States"}}, {"ip_str": "185.10.51.122", "port": 11211, "location": {"city": null, "region_code": null, "area_code": null, "longitude": 4.899499999999989, "country_code3": "NLD", "latitude": 52.38239999999999, "postal_code": null, "dma_code": null, "country_code": "NL", "country_name": "Netherlands"}}, {"ip_str": "124.158.10.123", "port": 11211, "location": {"city": "Hanoi", "region_code": "01", "area_code": null, "longitude": 105.85000000000002, "country_code3": "VNM", "latitude": 21.033299999999997, "postal_code": null, "dma_code": null, "country_code": "VN", "country_name": "Vietnam"}}, {"ip_str": "69.16.255.6", "port": 11211, "location": {"city": "Lansing", "region_code": "MI", "area_code": 517, "longitude": -84.636, "country_code3": "USA", "latitude": 42.72569999999999, "postal_code": "48917", "dma_code": 551, "country_code": "US", "country_name": "United States"}}, {"ip_str": "116.10.189.43", "port": 11211, "location": {"city": null, "region_code": "16", "area_code": null, "longitude": 108.31670000000003, "country_code3": "CHN", "latitude": 22.816699999999997, "postal_code": null, "dma_code": null, "country_code": "CN", "country_name": "China"}}, {"ip_str": "45.114.94.141", "port": 11211, "location": {"city": null, "region_code": null, "area_code": null, "longitude": 114.16669999999999, "country_code3": "HKG", "latitude": 22.25, "postal_code": null, "dma_code": null, "country_code": "HK", "country_name": "Hong Kong"}}, {"ip_str": "47.92.30.226", "port": 11211, "location": {"city": null, "region_code": null, "area_code": null, "longitude": 113.72660000000002, "country_code3": "CHN", "latitude": 34.77250000000001, "postal_code": null, "dma_code": null, "country_code": "CN", "country_name": "China"}}, {"ip_str": "185.246.67.127", "port": 11211, "location": {"city": null, "region_code": null, "area_code": null, "longitude": 37.60679999999999, "country_code3": "RUS", "latitude": 55.73859999999999, "postal_code": null, "dma_code": null, "country_code": "RU", "country_name": "Russian Federation"}}, {"ip_str": "185.141.24.61", "port": 11211, "location": {"city": "Bucharest", "region_code": "10", "area_code": null, "longitude": 26.099999999999994, "country_code3": "ROU", "latitude": 44.4333, "postal_code": "050238", "dma_code": null, "country_code": "RO", "country_name": "Romania"}}, {"ip_str": "37.224.41.107", "port": 11211, "location": {"city": "Dammam", "region_code": "06", "area_code": null, "longitude": 50.10329999999999, "country_code3": "SAU", "latitude": 26.43440000000001, "postal_code": null, "dma_code": null, "country_code": "SA", "country_name": "Saudi Arabia"}}, {"ip_str": "52.51.136.176", "port": 11211, "location": {"city": "Dublin", "region_code": "07", "area_code": null, "longitude": -6.248899999999992, "country_code3": "IRL", "latitude": 53.3331, "postal_code": "D02", "dma_code": null, "country_code": "IE", "country_name": "Ireland"}}, {"ip_str": "34.235.121.195", "port": 11211, "location": {"city": "Ashburn", "region_code": "VA", "area_code": 703, "longitude": -77.4728, "country_code3": "USA", "latitude": 39.048100000000005, "postal_code": "20149", "dma_code": 511, "country_code": "US", "country_name": "United States"}}, {"ip_str": "198.50.142.174", "port": 11211, "location": {"city": "Montr\u00e9al", "region_code": "QC", "area_code": null, "longitude": -73.5747, "country_code3": "CAN", "latitude": 45.50399999999999, "postal_code": "H3A", "dma_code": null, "country_code": "CA", "country_name": "Canada"}}, {"ip_str": "198.178.122.163", "port": 11211, "location": {"city": "Tampa", "region_code": "FL", "area_code": 813, "longitude": -82.5156, "country_code3": "USA", "latitude": 27.998700000000014, "postal_code": "33614", "dma_code": 539, "country_code": "US", "country_name": "United States"}}, {"ip_str": "34.218.212.168", "port": 11211, "location": {"city": "Boardman", "region_code": "OR", "area_code": 541, "longitude": -119.688, "country_code3": "USA", "latitude": 45.86959999999999, "postal_code": "97818", "dma_code": 810, "country_code": "US", "country_name": "United States"}}, {"ip_str": "172.246.64.81", "port": 11211, "location": {"city": "Los Angeles", "region_code": "CA", "area_code": 213, "longitude": -118.27799999999999, "country_code3": "USA", "latitude": 34.058400000000006, "postal_code": "90017", "dma_code": 803, "country_code": "US", "country_name": "United States"}}, {"ip_str": "171.14.211.135", "port": 11211, "location": {"city": null, "region_code": "09", "area_code": null, "longitude": 113.53250000000003, "country_code3": "CHN", "latitude": 34.68360000000001, "postal_code": null, "dma_code": null, "country_code": "CN", "country_name": "China"}}, {"ip_str": "5.189.154.113", "port": 11211, "location": {"city": null, "region_code": null, "area_code": null, "longitude": 9.491000000000014, "country_code3": "DEU", "latitude": 51.29929999999999, "postal_code": null, "dma_code": null, "country_code": "DE", "country_name": "Germany"}}, {"ip_str": "14.29.84.145", "port": 11211, "location": {"city": null, "region_code": "30", "area_code": null, "longitude": 113.25, "country_code3": "CHN", "latitude": 23.11670000000001, "postal_code": null, "dma_code": null, "country_code": "CN", "country_name": "China"}}, {"ip_str": "158.69.236.232", "port": 11211, "location": {"city": "Montr\u00e9al", "region_code": "QC", "area_code": null, "longitude": -73.5833, "country_code3": "CAN", "latitude": 45.5, "postal_code": "H3G", "dma_code": null, "country_code": "CA", "country_name": "Canada"}}, {"ip_str": "212.87.23.248", "port": 11211, "location": {"city": "Warsaw", "region_code": "78", "area_code": null, "longitude": 21.0, "country_code3": "POL", "latitude": 52.25, "postal_code": "00-202", "dma_code": null, "country_code": "PL", "country_name": "Poland"}}, {"ip_str": "35.184.40.66", "port": 11211, "location": {"city": null, "region_code": "VA", "area_code": null, "longitude": -77.2497, "country_code3": "USA", "latitude": 38.658199999999994, "postal_code": null, "dma_code": null, "country_code": "US", "country_name": "United States"}}, {"ip_str": "106.12.4.142", "port": 11211, "location": {"city": null, "region_code": "22", "area_code": null, "longitude": 116.38830000000002, "country_code3": "CHN", "latitude": 39.9289, "postal_code": null, "dma_code": null, "country_code": "CN", "country_name": "China"}}, {"ip_str": "101.200.183.206", "port": 11211, "location": {"city": null, "region_code": null, "area_code": null, "longitude": 113.72660000000002, "country_code3": "CHN", "latitude": 34.77250000000001, "postal_code": null, "dma_code": null, "country_code": "CN", "country_name": "China"}}, {"ip_str": "116.255.174.30", "port": 11211, "location": {"city": null, "region_code": "22", "area_code": null, "longitude": 116.38830000000002, "country_code3": "CHN", "latitude": 39.9289, "postal_code": null, "dma_code": null, "country_code": "CN", "country_name": "China"}}, {"ip_str": "54.234.239.219", "port": 11211, "location": {"city": "Ashburn", "region_code": "VA", "area_code": 703, "longitude": -77.4728, "country_code3": "USA", "latitude": 39.048100000000005, "postal_code": "20149", "dma_code": 511, "country_code": "US", "country_name": "United States"}}, {"ip_str": "198.137.202.183", "port": 11211, "location": {"city": null, "region_code": null, "area_code": null, "longitude": -97.822, "country_code3": "USA", "latitude": 37.751000000000005, "postal_code": null, "dma_code": null, "country_code": "US", "country_name": "United States"}}, {"ip_str": "104.238.161.223", "port": 11211, "location": {"city": "Heiwajima", "region_code": "40", "area_code": null, "longitude": 139.7459, "country_code3": "JPN", "latitude": 35.58260000000001, "postal_code": "143-0006", "dma_code": null, "country_code": "JP", "country_name": "Japan"}}, {"ip_str": "139.196.104.9", "port": 11211, "location": {"city": null, "region_code": "22", "area_code": null, "longitude": 116.38830000000002, "country_code3": "CHN", "latitude": 39.9289, "postal_code": null, "dma_code": null, "country_code": "CN", "country_name": "China"}}, {"ip_str": "83.167.226.67", "port": 11211, "location": {"city": null, "region_code": null, "area_code": null, "longitude": 14.411200000000008, "country_code3": "CZE", "latitude": 50.0848, "postal_code": null, "dma_code": null, "country_code": "CZ", "country_name": "Czech Republic"}}, {"ip_str": "149.202.190.29", "port": 11211, "location": {"city": null, "region_code": null, "area_code": null, "longitude": 2.3386999999999887, "country_code3": "FRA", "latitude": 48.85820000000001, "postal_code": null, "dma_code": null, "country_code": "FR", "country_name": "France"}}, {"ip_str": "5.189.181.176", "port": 11211, "location": {"city": null, "region_code": null, "area_code": null, "longitude": 9.491000000000014, "country_code3": "DEU", "latitude": 51.29929999999999, "postal_code": null, "dma_code": null, "country_code": "DE", "country_name": "Germany"}}, {"ip_str": "23.92.29.114", "port": 11211, "location": {"city": "Atlanta", "region_code": "GA", "area_code": 404, "longitude": -84.388, "country_code3": "USA", "latitude": 33.748999999999995, "postal_code": "30301", "dma_code": 524, "country_code": "US", "country_name": "United States"}}, {"ip_str": "106.3.44.55", "port": 11211, "location": {"city": null, "region_code": "22", "area_code": null, "longitude": 116.38830000000002, "country_code3": "CHN", "latitude": 39.9289, "postal_code": null, "dma_code": null, "country_code": "CN", "country_name": "China"}}, {"ip_str": "172.104.116.202", "port": 11211, "location": {"city": "Tokyo", "region_code": "40", "area_code": null, "longitude": 139.7514, "country_code3": "JPN", "latitude": 35.685, "postal_code": "102-0082", "dma_code": null, "country_code": "JP", "country_name": "Japan"}}, {"ip_str": "204.14.29.155", "port": 11211, "location": {"city": null, "region_code": null, "area_code": null, "longitude": -97.822, "country_code3": "USA", "latitude": 37.751000000000005, "postal_code": null, "dma_code": null, "country_code": "US", "country_name": "United States"}}, {"ip_str": "123.206.86.150", "port": 11211, "location": {"city": "Beijing", "region_code": "22", "area_code": null, "longitude": 116.38889999999998, "country_code3": "CHN", "latitude": 39.928799999999995, "postal_code": null, "dma_code": null, "country_code": "CN", "country_name": "China"}}, {"ip_str": "136.144.139.13", "port": 11211, "location": {"city": "Eindhoven", "region_code": "06", "area_code": null, "longitude": 5.400900000000007, "country_code3": "NLD", "latitude": 51.45140000000001, "postal_code": "5657", "dma_code": null, "country_code": "NL", "country_name": "Netherlands"}}, {"ip_str": "185.126.218.194", "port": 11211, "location": {"city": null, "region_code": null, "area_code": null, "longitude": 28.994799999999998, "country_code3": "TUR", "latitude": 41.0214, "postal_code": null, "dma_code": null, "country_code": "TR", "country_name": "Turkey"}}, {"ip_str": "54.201.109.58", "port": 11211, "location": {"city": "Boardman", "region_code": "OR", "area_code": 541, "longitude": -119.688, "country_code3": "USA", "latitude": 45.86959999999999, "postal_code": "97818", "dma_code": 810, "country_code": "US", "country_name": "United States"}}, {"ip_str": "5.39.25.60", "port": 11211, "location": {"city": null, "region_code": null, "area_code": null, "longitude": 2.3386999999999887, "country_code3": "FRA", "latitude": 48.85820000000001, "postal_code": null, "dma_code": null, "country_code": "FR", "country_name": "France"}}, {"ip_str": "185.51.202.190", "port": 11211, "location": {"city": null, "region_code": null, "area_code": null, "longitude": 51.423100000000005, "country_code3": "IRN", "latitude": 35.6961, "postal_code": null, "dma_code": null, "country_code": "IR", "country_name": "Iran, Islamic Republic of"}}, {"ip_str": "156.236.105.42", "port": 11211, "location": {"city": null, "region_code": null, "area_code": null, "longitude": -97.822, "country_code3": "USA", "latitude": 37.751000000000005, "postal_code": null, "dma_code": null, "country_code": "US", "country_name": "United States"}}, {"ip_str": "182.92.97.247", "port": 11211, "location": {"city": null, "region_code": null, "area_code": null, "longitude": 113.72660000000002, "country_code3": "CHN", "latitude": 34.77250000000001, "postal_code": null, "dma_code": null, "country_code": "CN", "country_name": "China"}}, {"ip_str": "112.74.168.10", "port": 11211, "location": {"city": null, "region_code": null, "area_code": null, "longitude": 113.72660000000002, "country_code3": "CHN", "latitude": 34.77250000000001, "postal_code": null, "dma_code": null, "country_code": "CN", "country_name": "China"}}, {"ip_str": "107.155.210.210", "port": 11211, "location": {"city": null, "region_code": null, "area_code": null, "longitude": 114.16669999999999, "country_code3": "HKG", "latitude": 22.25, "postal_code": null, "dma_code": null, "country_code": "HK", "country_name": "Hong Kong"}}, {"ip_str": "216.92.138.44", "port": 11211, "location": {"city": "Pittsburgh", "region_code": "PA", "area_code": 412, "longitude": -79.9741, "country_code3": "USA", "latitude": 40.405, "postal_code": "15210", "dma_code": 508, "country_code": "US", "country_name": "United States"}}, {"ip_str": "119.29.94.112", "port": 11211, "location": {"city": "Beijing", "region_code": "22", "area_code": null, "longitude": 116.38889999999998, "country_code3": "CHN", "latitude": 39.928799999999995, "postal_code": null, "dma_code": null, "country_code": "CN", "country_name": "China"}}, {"ip_str": "178.18.206.232", "port": 11211, "location": {"city": null, "region_code": "07", "area_code": null, "longitude": 30.695600000000013, "country_code3": "TUR", "latitude": 36.90809999999999, "postal_code": null, "dma_code": null, "country_code": "TR", "country_name": "Turkey"}}, {"ip_str": "47.93.38.103", "port": 11211, "location": {"city": null, "region_code": null, "area_code": null, "longitude": 113.72660000000002, "country_code3": "CHN", "latitude": 34.77250000000001, "postal_code": null, "dma_code": null, "country_code": "CN", "country_name": "China"}}, {"ip_str": "220.189.214.118", "port": 11211, "location": {"city": null, "region_code": "02", "area_code": null, "longitude": 120.16140000000001, "country_code3": "CHN", "latitude": 30.293599999999998, "postal_code": null, "dma_code": null, "country_code": "CN", "country_name": "China"}}, {"ip_str": "69.64.73.57", "port": 11211, "location": {"city": "Overland Park", "region_code": "KS", "area_code": 913, "longitude": -94.6449, "country_code3": "USA", "latitude": 38.95519999999999, "postal_code": "66207", "dma_code": 616, "country_code": "US", "country_name": "United States"}}, {"ip_str": "200.27.109.68", "port": 11211, "location": {"city": "Santiago", "region_code": "12", "area_code": null, "longitude": -70.6667, "country_code3": "CHL", "latitude": -33.44999999999999, "postal_code": null, "dma_code": null, "country_code": "CL", "country_name": "Chile"}}, {"ip_str": "121.40.158.239", "port": 11211, "location": {"city": null, "region_code": null, "area_code": null, "longitude": 113.72660000000002, "country_code3": "CHN", "latitude": 34.77250000000001, "postal_code": null, "dma_code": null, "country_code": "CN", "country_name": "China"}}, {"ip_str": "50.28.65.88", "port": 11211, "location": {"city": "Lansing", "region_code": "MI", "area_code": 517, "longitude": -84.5255, "country_code3": "USA", "latitude": 42.7422, "postal_code": "48912", "dma_code": 551, "country_code": "US", "country_name": "United States"}}, {"ip_str": "121.199.31.117", "port": 11211, "location": {"city": null, "region_code": null, "area_code": null, "longitude": 113.72660000000002, "country_code3": "CHN", "latitude": 34.77250000000001, "postal_code": null, "dma_code": null, "country_code": "CN", "country_name": "China"}}, {"ip_str": "91.90.255.165", "port": 11211, "location": {"city": "Riga", "region_code": "25", "area_code": null, "longitude": 24.099999999999994, "country_code3": "LVA", "latitude": 56.94999999999999, "postal_code": "1023", "dma_code": null, "country_code": "LV", "country_name": "Latvia"}}, {"ip_str": "133.130.101.122", "port": 11211, "location": {"city": null, "region_code": null, "area_code": null, "longitude": 139.69, "country_code3": "JPN", "latitude": 35.69, "postal_code": null, "dma_code": null, "country_code": "JP", "country_name": "Japan"}}, {"ip_str": "4.35.164.135", "port": 11211, "location": {"city": "San Francisco", "region_code": "CA", "area_code": 415, "longitude": -122.4089, "country_code3": "USA", "latitude": 37.79150000000001, "postal_code": "94108", "dma_code": 807, "country_code": "US", "country_name": "United States"}}, {"ip_str": "23.224.115.227", "port": 11211, "location": {"city": "Los Angeles", "region_code": "CA", "area_code": 213, "longitude": -118.2641, "country_code3": "USA", "latitude": 34.04939999999999, "postal_code": "90014", "dma_code": 803, "country_code": "US", "country_name": "United States"}}, {"ip_str": "51.254.128.108", "port": 11211, "location": {"city": null, "region_code": null, "area_code": null, "longitude": 2.3386999999999887, "country_code3": "FRA", "latitude": 48.85820000000001, "postal_code": null, "dma_code": null, "country_code": "FR", "country_name": "France"}}, {"ip_str": "39.106.200.187", "port": 11211, "location": {"city": null, "region_code": null, "area_code": null, "longitude": 113.72660000000002, "country_code3": "CHN", "latitude": 34.77250000000001, "postal_code": null, "dma_code": null, "country_code": "CN", "country_name": "China"}}, {"ip_str": "23.225.239.238", "port": 11211, "location": {"city": "Los Angeles", "region_code": "CA", "area_code": 213, "longitude": -118.2641, "country_code3": "USA", "latitude": 34.04939999999999, "postal_code": "90014", "dma_code": 803, "country_code": "US", "country_name": "United States"}}, {"ip_str": "210.5.43.44", "port": 11211, "location": {"city": null, "region_code": null, "area_code": null, "longitude": 112.5, "country_code3": "MYS", "latitude": 2.5, "postal_code": null, "dma_code": null, "country_code": "MY", "country_name": "Malaysia"}}, {"ip_str": "162.144.95.52", "port": 11211, "location": {"city": "Provo", "region_code": "UT", "area_code": 801, "longitude": -111.6133, "country_code3": "USA", "latitude": 40.21809999999999, "postal_code": "84606", "dma_code": 770, "country_code": "US", "country_name": "United States"}}, {"ip_str": "158.69.142.151", "port": 11211, "location": {"city": "Montr\u00e9al", "region_code": "QC", "area_code": null, "longitude": -73.5833, "country_code3": "CAN", "latitude": 45.5, "postal_code": "H3G", "dma_code": null, "country_code": "CA", "country_name": "Canada"}}, {"ip_str": "121.40.23.193", "port": 11211, "location": {"city": null, "region_code": null, "area_code": null, "longitude": 113.72660000000002, "country_code3": "CHN", "latitude": 34.77250000000001, "postal_code": null, "dma_code": null, "country_code": "CN", "country_name": "China"}}, {"ip_str": "39.105.136.18", "port": 11211, "location": {"city": null, "region_code": null, "area_code": null, "longitude": 113.72660000000002, "country_code3": "CHN", "latitude": 34.77250000000001, "postal_code": null, "dma_code": null, "country_code": "CN", "country_name": "China"}}, {"ip_str": "120.27.129.54", "port": 11211, "location": {"city": null, "region_code": null, "area_code": null, "longitude": 113.72660000000002, "country_code3": "CHN", "latitude": 34.77250000000001, "postal_code": null, "dma_code": null, "country_code": "CN", "country_name": "China"}}, {"ip_str": "92.247.29.75", "port": 11211, "location": {"city": "Sofia", "region_code": "42", "area_code": null, "longitude": 23.316699999999997, "country_code3": "BGR", "latitude": 42.6833, "postal_code": "1000", "dma_code": null, "country_code": "BG", "country_name": "Bulgaria"}}, {"ip_str": "103.27.42.25", "port": 11211, "location": {"city": null, "region_code": null, "area_code": null, "longitude": 139.69, "country_code3": "JPN", "latitude": 35.69, "postal_code": null, "dma_code": null, "country_code": "JP", "country_name": "Japan"}}, {"ip_str": "104.227.146.197", "port": 11211, "location": {"city": null, "region_code": null, "area_code": null, "longitude": -79.3716, "country_code3": "CAN", "latitude": 43.6319, "postal_code": null, "dma_code": null, "country_code": "CA", "country_name": "Canada"}}, {"ip_str": "23.225.239.13", "port": 11211, "location": {"city": "Los Angeles", "region_code": "CA", "area_code": 213, "longitude": -118.2641, "country_code3": "USA", "latitude": 34.04939999999999, "postal_code": "90014", "dma_code": 803, "country_code": "US", "country_name": "United States"}}, {"ip_str": "50.62.133.26", "port": 11211, "location": {"city": "Scottsdale", "region_code": "AZ", "area_code": 480, "longitude": -111.8906, "country_code3": "USA", "latitude": 33.61189999999999, "postal_code": "85260", "dma_code": 753, "country_code": "US", "country_name": "United States"}}, {"ip_str": "91.206.14.202", "port": 11211, "location": {"city": "Moscow", "region_code": "48", "area_code": null, "longitude": 37.6156, "country_code3": "RUS", "latitude": 55.75219999999999, "postal_code": "125466", "dma_code": null, "country_code": "RU", "country_name": "Russian Federation"}}, {"ip_str": "50.22.159.137", "port": 11211, "location": {"city": "Seattle", "region_code": "WA", "area_code": 206, "longitude": -122.3321, "country_code3": "USA", "latitude": 47.6062, "postal_code": "98111", "dma_code": 819, "country_code": "US", "country_name": "United States"}}, {"ip_str": "149.28.151.166", "port": 11211, "location": {"city": "Singapore", "region_code": "00", "area_code": null, "longitude": 103.85579999999999, "country_code3": "SGP", "latitude": 1.2931000000000097, "postal_code": null, "dma_code": null, "country_code": "SG", "country_name": "Singapore"}}, {"ip_str": "181.214.133.248", "port": 11211, "location": {"city": "Dallas", "region_code": "TX", "area_code": 214, "longitude": -96.8705, "country_code3": "USA", "latitude": 32.81479999999999, "postal_code": "75247", "dma_code": 623, "country_code": "US", "country_name": "United States"}}, {"ip_str": "94.138.207.203", "port": 11211, "location": {"city": null, "region_code": null, "area_code": null, "longitude": 28.994799999999998, "country_code3": "TUR", "latitude": 41.0214, "postal_code": null, "dma_code": null, "country_code": "TR", "country_name": "Turkey"}}, {"ip_str": "58.133.250.65", "port": 11211, "location": {"city": null, "region_code": "22", "area_code": null, "longitude": 116.38830000000002, "country_code3": "CHN", "latitude": 39.9289, "postal_code": null, "dma_code": null, "country_code": "CN", "country_name": "China"}}, {"ip_str": "47.110.84.118", "port": 11211, "location": {"city": null, "region_code": null, "area_code": null, "longitude": 113.72660000000002, "country_code3": "CHN", "latitude": 34.77250000000001, "postal_code": null, "dma_code": null, "country_code": "CN", "country_name": "China"}}, {"ip_str": "123.206.80.39", "port": 11211, "location": {"city": "Beijing", "region_code": "22", "area_code": null, "longitude": 116.38889999999998, "country_code3": "CHN", "latitude": 39.928799999999995, "postal_code": null, "dma_code": null, "country_code": "CN", "country_name": "China"}}, {"ip_str": "39.108.180.87", "port": 11211, "location": {"city": null, "region_code": null, "area_code": null, "longitude": 113.72660000000002, "country_code3": "CHN", "latitude": 34.77250000000001, "postal_code": null, "dma_code": null, "country_code": "CN", "country_name": "China"}}, {"ip_str": "23.226.2.30", "port": 11211, "location": {"city": null, "region_code": null, "area_code": null, "longitude": 114.16669999999999, "country_code3": "HKG", "latitude": 22.25, "postal_code": null, "dma_code": null, "country_code": "HK", "country_name": "Hong Kong"}}, {"ip_str": "173.230.136.35", "port": 11211, "location": {"city": "Atlanta", "region_code": "GA", "area_code": 404, "longitude": -84.388, "country_code3": "USA", "latitude": 33.748999999999995, "postal_code": "30301", "dma_code": 524, "country_code": "US", "country_name": "United States"}}, {"ip_str": "45.114.94.42", "port": 11211, "location": {"city": null, "region_code": null, "area_code": null, "longitude": 114.16669999999999, "country_code3": "HKG", "latitude": 22.25, "postal_code": null, "dma_code": null, "country_code": "HK", "country_name": "Hong Kong"}}, {"ip_str": "95.84.191.28", "port": 11211, "location": {"city": "Moscow", "region_code": "48", "area_code": null, "longitude": 37.6156, "country_code3": "RUS", "latitude": 55.75219999999999, "postal_code": "129344", "dma_code": null, "country_code": "RU", "country_name": "Russian Federation"}}, {"ip_str": "169.46.237.48", "port": 11211, "location": {"city": null, "region_code": null, "area_code": null, "longitude": -97.822, "country_code3": "USA", "latitude": 37.751000000000005, "postal_code": null, "dma_code": null, "country_code": "US", "country_name": "United States"}}, {"ip_str": "121.201.65.163", "port": 11211, "location": {"city": null, "region_code": "30", "area_code": null, "longitude": 113.25, "country_code3": "CHN", "latitude": 23.11670000000001, "postal_code": null, "dma_code": null, "country_code": "CN", "country_name": "China"}}, {"ip_str": "64.237.53.72", "port": 11211, "location": {"city": "Matawan", "region_code": "NJ", "area_code": 732, "longitude": -74.2307, "country_code3": "USA", "latitude": 40.46520000000001, "postal_code": "07747", "dma_code": 501, "country_code": "US", "country_name": "United States"}}, {"ip_str": "47.97.3.20", "port": 11211, "location": {"city": null, "region_code": null, "area_code": null, "longitude": 113.72660000000002, "country_code3": "CHN", "latitude": 34.77250000000001, "postal_code": null, "dma_code": null, "country_code": "CN", "country_name": "China"}}, {"ip_str": "117.25.133.24", "port": 11211, "location": {"city": null, "region_code": "07", "area_code": null, "longitude": 118.08190000000002, "country_code3": "CHN", "latitude": 24.47980000000001, "postal_code": null, "dma_code": null, "country_code": "CN", "country_name": "China"}}, {"ip_str": "156.236.109.149", "port": 11211, "location": {"city": null, "region_code": null, "area_code": null, "longitude": -97.822, "country_code3": "USA", "latitude": 37.751000000000005, "postal_code": null, "dma_code": null, "country_code": "US", "country_name": "United States"}}, {"ip_str": "185.85.207.50", "port": 11211, "location": {"city": null, "region_code": null, "area_code": null, "longitude": 28.994799999999998, "country_code3": "TUR", "latitude": 41.0214, "postal_code": null, "dma_code": null, "country_code": "TR", "country_name": "Turkey"}}, {"ip_str": "104.239.240.226", "port": 11211, "location": {"city": "San Antonio", "region_code": "TX", "area_code": 210, "longitude": -98.3987, "country_code3": "USA", "latitude": 29.4889, "postal_code": "78218", "dma_code": 641, "country_code": "US", "country_name": "United States"}}, {"ip_str": "133.242.201.141", "port": 11211, "location": {"city": null, "region_code": null, "area_code": null, "longitude": 139.69, "country_code3": "JPN", "latitude": 35.69, "postal_code": null, "dma_code": null, "country_code": "JP", "country_name": "Japan"}}, {"ip_str": "154.210.28.40", "port": 11211, "location": {"city": "Los Angeles", "region_code": "CA", "area_code": 310, "longitude": -118.244, "country_code3": "USA", "latitude": 34.05439999999999, "postal_code": "90009", "dma_code": 803, "country_code": "US", "country_name": "United States"}}, {"ip_str": "119.29.228.139", "port": 11211, "location": {"city": "Beijing", "region_code": "22", "area_code": null, "longitude": 116.38889999999998, "country_code3": "CHN", "latitude": 39.928799999999995, "postal_code": null, "dma_code": null, "country_code": "CN", "country_name": "China"}}, {"ip_str": "118.89.20.43", "port": 11211, "location": {"city": "Beijing", "region_code": "22", "area_code": null, "longitude": 116.38889999999998, "country_code3": "CHN", "latitude": 39.928799999999995, "postal_code": null, "dma_code": null, "country_code": "CN", "country_name": "China"}}, {"ip_str": "18.234.99.253", "port": 11211, "location": {"city": "Ashburn", "region_code": "VA", "area_code": 703, "longitude": -77.4728, "country_code3": "USA", "latitude": 39.048100000000005, "postal_code": "20149", "dma_code": 511, "country_code": "US", "country_name": "United States"}}, {"ip_str": "137.74.136.126", "port": 11211, "location": {"city": null, "region_code": null, "area_code": null, "longitude": 2.3386999999999887, "country_code3": "FRA", "latitude": 48.85820000000001, "postal_code": null, "dma_code": null, "country_code": "FR", "country_name": "France"}}, {"ip_str": "23.224.115.8", "port": 11211, "location": {"city": "Los Angeles", "region_code": "CA", "area_code": 213, "longitude": -118.2641, "country_code3": "USA", "latitude": 34.04939999999999, "postal_code": "90014", "dma_code": 803, "country_code": "US", "country_name": "United States"}}, {"ip_str": "211.199.46.25", "port": 11211, "location": {"city": "Seongju", "region_code": "13", "area_code": null, "longitude": 127.16669999999999, "country_code3": "KOR", "latitude": 37.08160000000001, "postal_code": null, "dma_code": null, "country_code": "KR", "country_name": "Korea, Republic of"}}, {"ip_str": "198.71.54.69", "port": 11211, "location": {"city": "Wayne", "region_code": "PA", "area_code": 610, "longitude": -75.4083, "country_code3": "USA", "latitude": 40.0548, "postal_code": "19087", "dma_code": 504, "country_code": "US", "country_name": "United States"}}, {"ip_str": "123.55.102.157", "port": 11211, "location": {"city": null, "region_code": "09", "area_code": null, "longitude": 113.53250000000003, "country_code3": "CHN", "latitude": 34.68360000000001, "postal_code": null, "dma_code": null, "country_code": "CN", "country_name": "China"}}, {"ip_str": "74.207.246.167", "port": 11211, "location": {"city": "Fremont", "region_code": "CA", "area_code": 510, "longitude": -121.9829, "country_code3": "USA", "latitude": 37.56700000000001, "postal_code": "94536", "dma_code": 807, "country_code": "US", "country_name": "United States"}}, {"ip_str": "188.93.18.214", "port": 11211, "location": {"city": null, "region_code": null, "area_code": null, "longitude": 37.60679999999999, "country_code3": "RUS", "latitude": 55.73859999999999, "postal_code": null, "dma_code": null, "country_code": "RU", "country_name": "Russian Federation"}}, {"ip_str": "103.229.73.20", "port": 11211, "location": {"city": "Jakarta", "region_code": "04", "area_code": null, "longitude": 106.82940000000002, "country_code3": "IDN", "latitude": -6.1743999999999915, "postal_code": null, "dma_code": null, "country_code": "ID", "country_name": "Indonesia"}}, {"ip_str": "139.199.153.49", "port": 11211, "location": {"city": "Beijing", "region_code": "22", "area_code": null, "longitude": 116.38889999999998, "country_code3": "CHN", "latitude": 39.928799999999995, "postal_code": null, "dma_code": null, "country_code": "CN", "country_name": "China"}}, {"ip_str": "207.148.65.139", "port": 11211, "location": {"city": "Singapore", "region_code": "00", "area_code": null, "longitude": 103.85579999999999, "country_code3": "SGP", "latitude": 1.2931000000000097, "postal_code": null, "dma_code": null, "country_code": "SG", "country_name": "Singapore"}}, {"ip_str": "181.214.133.236", "port": 11211, "location": {"city": "Dallas", "region_code": "TX", "area_code": 214, "longitude": -96.8705, "country_code3": "USA", "latitude": 32.81479999999999, "postal_code": "75247", "dma_code": 623, "country_code": "US", "country_name": "United States"}}, {"ip_str": "45.114.94.143", "port": 11211, "location": {"city": null, "region_code": null, "area_code": null, "longitude": 114.16669999999999, "country_code3": "HKG", "latitude": 22.25, "postal_code": null, "dma_code": null, "country_code": "HK", "country_name": "Hong Kong"}}, {"ip_str": "153.122.26.67", "port": 11211, "location": {"city": null, "region_code": null, "area_code": null, "longitude": 139.69, "country_code3": "JPN", "latitude": 35.69, "postal_code": null, "dma_code": null, "country_code": "JP", "country_name": "Japan"}}, {"ip_str": "60.207.126.236", "port": 11211, "location": {"city": null, "region_code": "22", "area_code": null, "longitude": 116.38830000000002, "country_code3": "CHN", "latitude": 39.9289, "postal_code": null, "dma_code": null, "country_code": "CN", "country_name": "China"}}, {"ip_str": "89.43.24.194", "port": 11211, "location": {"city": "Targoviste", "region_code": "16", "area_code": null, "longitude": 25.456700000000012, "country_code3": "ROU", "latitude": 44.925399999999996, "postal_code": "130018", "dma_code": null, "country_code": "RO", "country_name": "Romania"}}, {"ip_str": "208.87.37.182", "port": 11211, "location": {"city": null, "region_code": null, "area_code": null, "longitude": -76.0, "country_code3": "BHS", "latitude": 24.25, "postal_code": null, "dma_code": null, "country_code": "BS", "country_name": "Bahamas"}}, {"ip_str": "65.61.172.59", "port": 11211, "location": {"city": "San Antonio", "region_code": "TX", "area_code": 210, "longitude": -98.3987, "country_code3": "USA", "latitude": 29.4889, "postal_code": "78218", "dma_code": 641, "country_code": "US", "country_name": "United States"}}, {"ip_str": "23.225.239.232", "port": 11211, "location": {"city": "Los Angeles", "region_code": "CA", "area_code": 213, "longitude": -118.2641, "country_code3": "USA", "latitude": 34.04939999999999, "postal_code": "90014", "dma_code": 803, "country_code": "US", "country_name": "United States"}}, {"ip_str": "114.115.169.81", "port": 11211, "location": {"city": null, "region_code": "22", "area_code": null, "longitude": 116.38830000000002, "country_code3": "CHN", "latitude": 39.9289, "postal_code": null, "dma_code": null, "country_code": "CN", "country_name": "China"}}, {"ip_str": "79.124.78.133", "port": 11211, "location": {"city": null, "region_code": null, "area_code": null, "longitude": 23.33330000000001, "country_code3": "BGR", "latitude": 42.69999999999999, "postal_code": null, "dma_code": null, "country_code": "BG", "country_name": "Bulgaria"}}, {"ip_str": "209.95.39.149", "port": 11211, "location": {"city": "Providence", "region_code": "UT", "area_code": 435, "longitude": -111.8147, "country_code3": "USA", "latitude": 41.69290000000001, "postal_code": "84332", "dma_code": 770, "country_code": "US", "country_name": "United States"}}, {"ip_str": "89.190.34.27", "port": 11211, "location": {"city": "Sadska", "region_code": "88", "area_code": null, "longitude": 14.983300000000014, "country_code3": "CZE", "latitude": 50.13329999999999, "postal_code": "289 12", "dma_code": null, "country_code": "CZ", "country_name": "Czech Republic"}}, {"ip_str": "172.104.145.212", "port": 11211, "location": {"city": "Frankfurt", "region_code": "05", "area_code": null, "longitude": 8.684200000000004, "country_code3": "DEU", "latitude": 50.1155, "postal_code": "60313", "dma_code": null, "country_code": "DE", "country_name": "Germany"}}, {"ip_str": "45.79.82.134", "port": 11211, "location": {"city": "Fremont", "region_code": "CA", "area_code": 510, "longitude": -121.9829, "country_code3": "USA", "latitude": 37.56700000000001, "postal_code": "94536", "dma_code": 807, "country_code": "US", "country_name": "United States"}}, {"ip_str": "76.12.219.116", "port": 11211, "location": {"city": "Newark", "region_code": "DE", "area_code": 302, "longitude": -75.7044, "country_code3": "USA", "latitude": 39.6155, "postal_code": "19702", "dma_code": 504, "country_code": "US", "country_name": "United States"}}, {"ip_str": "198.24.128.21", "port": 11211, "location": {"city": "Tempe", "region_code": "AZ", "area_code": 480, "longitude": -111.9171, "country_code3": "USA", "latitude": 33.4357, "postal_code": "85281", "dma_code": 753, "country_code": "US", "country_name": "United States"}}, {"ip_str": "129.204.2.218", "port": 11211, "location": {"city": null, "region_code": "22", "area_code": null, "longitude": 116.38830000000002, "country_code3": "CHN", "latitude": 39.9289, "postal_code": null, "dma_code": null, "country_code": "CN", "country_name": "China"}}, {"ip_str": "197.242.148.187", "port": 11211, "location": {"city": null, "region_code": null, "area_code": null, "longitude": 24.0, "country_code3": "ZAF", "latitude": -29.0, "postal_code": null, "dma_code": null, "country_code": "ZA", "country_name": "South Africa"}}, {"ip_str": "189.39.10.65", "port": 11211, "location": {"city": "Sao Paulo", "region_code": "27", "area_code": null, "longitude": -46.641699999999986, "country_code3": "BRA", "latitude": -23.57329999999999, "postal_code": "01323", "dma_code": null, "country_code": "BR", "country_name": "Brazil"}}, {"ip_str": "185.42.28.6", "port": 11211, "location": {"city": "Bouff\u00e9r\u00e9", "region_code": "B5", "area_code": null, "longitude": -1.3395999999999901, "country_code3": "FRA", "latitude": 46.96180000000001, "postal_code": "85600", "dma_code": null, "country_code": "FR", "country_name": "France"}}, {"ip_str": "47.96.2.111", "port": 11211, "location": {"city": null, "region_code": null, "area_code": null, "longitude": 113.72660000000002, "country_code3": "CHN", "latitude": 34.77250000000001, "postal_code": null, "dma_code": null, "country_code": "CN", "country_name": "China"}}, {"ip_str": "67.227.198.111", "port": 11211, "location": {"city": "Lansing", "region_code": "MI", "area_code": 517, "longitude": -84.636, "country_code3": "USA", "latitude": 42.72569999999999, "postal_code": "48917", "dma_code": 551, "country_code": "US", "country_name": "United States"}}, {"ip_str": "154.119.36.2", "port": 11211, "location": {"city": "Cape Town", "region_code": "11", "area_code": null, "longitude": 18.42320000000001, "country_code3": "ZAF", "latitude": -33.92580000000001, "postal_code": "7945", "dma_code": null, "country_code": "ZA", "country_name": "South Africa"}}, {"ip_str": "185.51.202.43", "port": 11211, "location": {"city": null, "region_code": null, "area_code": null, "longitude": 51.423100000000005, "country_code3": "IRN", "latitude": 35.6961, "postal_code": null, "dma_code": null, "country_code": "IR", "country_name": "Iran, Islamic Republic of"}}, {"ip_str": "144.217.12.175", "port": 11211, "location": {"city": "Beauharnois", "region_code": "QC", "area_code": null, "longitude": -73.8659, "country_code3": "CAN", "latitude": 45.3168, "postal_code": "J6N", "dma_code": null, "country_code": "CA", "country_name": "Canada"}}, {"ip_str": "164.132.93.50", "port": 11211, "location": {"city": null, "region_code": null, "area_code": null, "longitude": 2.3386999999999887, "country_code3": "FRA", "latitude": 48.85820000000001, "postal_code": null, "dma_code": null, "country_code": "FR", "country_name": "France"}}, {"ip_str": "83.101.134.14", "port": 11211, "location": {"city": "Riyadh", "region_code": "10", "area_code": null, "longitude": 46.71520000000001, "country_code3": "SAU", "latitude": 24.653699999999986, "postal_code": null, "dma_code": null, "country_code": "SA", "country_name": "Saudi Arabia"}}, {"ip_str": "146.71.123.66", "port": 11211, "location": {"city": "Los Angeles", "region_code": "CA", "area_code": 213, "longitude": -118.27799999999999, "country_code3": "USA", "latitude": 34.058400000000006, "postal_code": "90017", "dma_code": 803, "country_code": "US", "country_name": "United States"}}, {"ip_str": "212.64.114.54", "port": 11211, "location": {"city": null, "region_code": "22", "area_code": null, "longitude": 116.38830000000002, "country_code3": "CHN", "latitude": 39.9289, "postal_code": null, "dma_code": null, "country_code": "CN", "country_name": "China"}}, {"ip_str": "149.56.69.238", "port": 11211, "location": {"city": "Montr\u00e9al", "region_code": "QC", "area_code": null, "longitude": -73.5747, "country_code3": "CAN", "latitude": 45.50399999999999, "postal_code": "H3A", "dma_code": null, "country_code": "CA", "country_name": "Canada"}}, {"ip_str": "154.210.20.40", "port": 11211, "location": {"city": "Los Angeles", "region_code": "CA", "area_code": 310, "longitude": -118.244, "country_code3": "USA", "latitude": 34.05439999999999, "postal_code": "90009", "dma_code": 803, "country_code": "US", "country_name": "United States"}}, {"ip_str": "195.96.231.116", "port": 11211, "location": {"city": null, "region_code": null, "area_code": null, "longitude": 23.33330000000001, "country_code3": "BGR", "latitude": 42.69999999999999, "postal_code": null, "dma_code": null, "country_code": "BG", "country_name": "Bulgaria"}}, {"ip_str": "167.160.1.30", "port": 11211, "location": {"city": null, "region_code": null, "area_code": null, "longitude": 4.899499999999989, "country_code3": "NLD", "latitude": 52.38239999999999, "postal_code": null, "dma_code": null, "country_code": "NL", "country_name": "Netherlands"}}, {"ip_str": "45.79.82.180", "port": 11211, "location": {"city": "Fremont", "region_code": "CA", "area_code": 510, "longitude": -121.9829, "country_code3": "USA", "latitude": 37.56700000000001, "postal_code": "94536", "dma_code": 807, "country_code": "US", "country_name": "United States"}}, {"ip_str": "46.105.105.224", "port": 11211, "location": {"city": null, "region_code": null, "area_code": null, "longitude": 2.3386999999999887, "country_code3": "FRA", "latitude": 48.85820000000001, "postal_code": null, "dma_code": null, "country_code": "FR", "country_name": "France"}}, {"ip_str": "170.178.183.181", "port": 11211, "location": {"city": "Las Vegas", "region_code": "NV", "area_code": 702, "longitude": -115.0891, "country_code3": "USA", "latitude": 36.07679999999999, "postal_code": "89120", "dma_code": 839, "country_code": "US", "country_name": "United States"}}, {"ip_str": "47.93.85.24", "port": 11211, "location": {"city": null, "region_code": null, "area_code": null, "longitude": 113.72660000000002, "country_code3": "CHN", "latitude": 34.77250000000001, "postal_code": null, "dma_code": null, "country_code": "CN", "country_name": "China"}}, {"ip_str": "123.207.119.231", "port": 11211, "location": {"city": "Beijing", "region_code": "22", "area_code": null, "longitude": 116.38889999999998, "country_code3": "CHN", "latitude": 39.928799999999995, "postal_code": null, "dma_code": null, "country_code": "CN", "country_name": "China"}}, {"ip_str": "112.74.160.237", "port": 11211, "location": {"city": null, "region_code": null, "area_code": null, "longitude": 113.72660000000002, "country_code3": "CHN", "latitude": 34.77250000000001, "postal_code": null, "dma_code": null, "country_code": "CN", "country_name": "China"}}, {"ip_str": "154.210.47.238", "port": 11211, "location": {"city": "Los Angeles", "region_code": "CA", "area_code": 310, "longitude": -118.244, "country_code3": "USA", "latitude": 34.05439999999999, "postal_code": "90009", "dma_code": 803, "country_code": "US", "country_name": "United States"}}, {"ip_str": "45.114.94.206", "port": 11211, "location": {"city": null, "region_code": null, "area_code": null, "longitude": 114.16669999999999, "country_code3": "HKG", "latitude": 22.25, "postal_code": null, "dma_code": null, "country_code": "HK", "country_name": "Hong Kong"}}, {"ip_str": "218.89.232.115", "port": 11211, "location": {"city": "Chengdu", "region_code": "32", "area_code": null, "longitude": 104.06670000000003, "country_code3": "CHN", "latitude": 30.66669999999999, "postal_code": null, "dma_code": null, "country_code": "CN", "country_name": "China"}}, {"ip_str": "140.82.8.239", "port": 11211, "location": {"city": "Piscataway", "region_code": "NJ", "area_code": 732, "longitude": -74.4637, "country_code3": "USA", "latitude": 40.55160000000001, "postal_code": "08854", "dma_code": 501, "country_code": "US", "country_name": "United States"}}, {"ip_str": "75.126.200.212", "port": 11211, "location": {"city": "Dallas", "region_code": "TX", "area_code": 214, "longitude": -96.8217, "country_code3": "USA", "latitude": 32.778699999999986, "postal_code": "75270", "dma_code": 623, "country_code": "US", "country_name": "United States"}}, {"ip_str": "60.216.227.5", "port": 11211, "location": {"city": null, "region_code": "25", "area_code": null, "longitude": 120.37189999999998, "country_code3": "CHN", "latitude": 36.098600000000005, "postal_code": null, "dma_code": null, "country_code": "CN", "country_name": "China"}}, {"ip_str": "23.224.115.2", "port": 11211, "location": {"city": "Los Angeles", "region_code": "CA", "area_code": 213, "longitude": -118.2641, "country_code3": "USA", "latitude": 34.04939999999999, "postal_code": "90014", "dma_code": 803, "country_code": "US", "country_name": "United States"}}, {"ip_str": "103.88.221.30", "port": 11211, "location": {"city": "Mumbai", "region_code": "16", "area_code": null, "longitude": 72.82579999999999, "country_code3": "IND", "latitude": 18.974999999999994, "postal_code": "400067", "dma_code": null, "country_code": "IN", "country_name": "India"}}, {"ip_str": "222.135.144.238", "port": 11211, "location": {"city": null, "region_code": "25", "area_code": null, "longitude": 120.37189999999998, "country_code3": "CHN", "latitude": 36.098600000000005, "postal_code": null, "dma_code": null, "country_code": "CN", "country_name": "China"}}, {"ip_str": "184.171.249.197", "port": 11211, "location": {"city": "Orlando", "region_code": "FL", "area_code": 407, "longitude": -81.1893, "country_code3": "USA", "latitude": 28.58869999999999, "postal_code": "32826", "dma_code": 534, "country_code": "US", "country_name": "United States"}}, {"ip_str": "106.14.215.61", "port": 11211, "location": {"city": null, "region_code": "22", "area_code": null, "longitude": 116.38830000000002, "country_code3": "CHN", "latitude": 39.9289, "postal_code": null, "dma_code": null, "country_code": "CN", "country_name": "China"}}, {"ip_str": "187.72.231.93", "port": 11211, "location": {"city": "Pocos De Caldas", "region_code": "15", "area_code": null, "longitude": -46.56460000000001, "country_code3": "BRA", "latitude": -21.786900000000003, "postal_code": null, "dma_code": null, "country_code": "BR", "country_name": "Brazil"}}, {"ip_str": "37.187.140.119", "port": 11211, "location": {"city": null, "region_code": null, "area_code": null, "longitude": 2.3386999999999887, "country_code3": "FRA", "latitude": 48.85820000000001, "postal_code": null, "dma_code": null, "country_code": "FR", "country_name": "France"}}, {"ip_str": "202.90.141.82", "port": 11211, "location": {"city": "Taguig", "region_code": "D9", "area_code": null, "longitude": 121.07389999999998, "country_code3": "PHL", "latitude": 14.533899999999988, "postal_code": "1632", "dma_code": null, "country_code": "PH", "country_name": "Philippines"}}, {"ip_str": "23.224.115.196", "port": 11211, "location": {"city": "Los Angeles", "region_code": "CA", "area_code": 213, "longitude": -118.2641, "country_code3": "USA", "latitude": 34.04939999999999, "postal_code": "90014", "dma_code": 803, "country_code": "US", "country_name": "United States"}}, {"ip_str": "103.72.165.249", "port": 11211, "location": {"city": null, "region_code": null, "area_code": null, "longitude": 114.16669999999999, "country_code3": "HKG", "latitude": 22.25, "postal_code": null, "dma_code": null, "country_code": "HK", "country_name": "Hong Kong"}}, {"ip_str": "104.251.211.17", "port": 11211, "location": {"city": null, "region_code": null, "area_code": null, "longitude": -97.822, "country_code3": "USA", "latitude": 37.751000000000005, "postal_code": null, "dma_code": null, "country_code": "US", "country_name": "United States"}}, {"ip_str": "31.31.201.124", "port": 11211, "location": {"city": null, "region_code": null, "area_code": null, "longitude": 37.60679999999999, "country_code3": "RUS", "latitude": 55.73859999999999, "postal_code": null, "dma_code": null, "country_code": "RU", "country_name": "Russian Federation"}}, {"ip_str": "45.118.148.74", "port": 11211, "location": {"city": null, "region_code": null, "area_code": null, "longitude": 106.0, "country_code3": "VNM", "latitude": 16.0, "postal_code": null, "dma_code": null, "country_code": "VN", "country_name": "Vietnam"}}, {"ip_str": "69.197.177.230", "port": 11211, "location": {"city": "Kansas City", "region_code": "MO", "area_code": 816, "longitude": -94.566, "country_code3": "USA", "latitude": 39.10679999999999, "postal_code": "64106", "dma_code": 616, "country_code": "US", "country_name": "United States"}}, {"ip_str": "154.210.47.10", "port": 11211, "location": {"city": "Los Angeles", "region_code": "CA", "area_code": 310, "longitude": -118.244, "country_code3": "USA", "latitude": 34.05439999999999, "postal_code": "90009", "dma_code": 803, "country_code": "US", "country_name": "United States"}}, {"ip_str": "95.172.255.12", "port": 11211, "location": {"city": null, "region_code": null, "area_code": null, "longitude": -0.12239999999999895, "country_code3": "GBR", "latitude": 51.496399999999994, "postal_code": null, "dma_code": null, "country_code": "GB", "country_name": "United Kingdom"}}, {"ip_str": "62.216.33.141", "port": 11211, "location": {"city": "Kiev", "region_code": "12", "area_code": null, "longitude": 30.516699999999986, "country_code3": "UKR", "latitude": 50.4333, "postal_code": "03087", "dma_code": null, "country_code": "UA", "country_name": "Ukraine"}}, {"ip_str": "115.28.147.46", "port": 11211, "location": {"city": null, "region_code": null, "area_code": null, "longitude": 113.72660000000002, "country_code3": "CHN", "latitude": 34.77250000000001, "postal_code": null, "dma_code": null, "country_code": "CN", "country_name": "China"}}, {"ip_str": "209.188.81.79", "port": 11211, "location": {"city": "Lansing", "region_code": "MI", "area_code": 517, "longitude": -84.636, "country_code3": "USA", "latitude": 42.72569999999999, "postal_code": "48917", "dma_code": 551, "country_code": "US", "country_name": "United States"}}, {"ip_str": "103.98.160.5", "port": 11211, "location": {"city": null, "region_code": null, "area_code": null, "longitude": 106.0, "country_code3": "VNM", "latitude": 16.0, "postal_code": null, "dma_code": null, "country_code": "VN", "country_name": "Vietnam"}}, {"ip_str": "154.210.47.201", "port": 11211, "location": {"city": "Los Angeles", "region_code": "CA", "area_code": 310, "longitude": -118.244, "country_code3": "USA", "latitude": 34.05439999999999, "postal_code": "90009", "dma_code": 803, "country_code": "US", "country_name": "United States"}}, {"ip_str": "119.201.18.195", "port": 11211, "location": {"city": "Daegu", "region_code": "15", "area_code": null, "longitude": 128.59109999999998, "country_code3": "KOR", "latitude": 35.870299999999986, "postal_code": null, "dma_code": null, "country_code": "KR", "country_name": "Korea, Republic of"}}, {"ip_str": "189.91.142.125", "port": 11211, "location": {"city": "Governador Valadares", "region_code": "15", "area_code": null, "longitude": -41.9513, "country_code3": "BRA", "latitude": -18.8613, "postal_code": null, "dma_code": null, "country_code": "BR", "country_name": "Brazil"}}, {"ip_str": "173.254.252.190", "port": 11211, "location": {"city": "Dallas", "region_code": "TX", "area_code": 214, "longitude": -96.8705, "country_code3": "USA", "latitude": 32.81479999999999, "postal_code": "75247", "dma_code": 623, "country_code": "US", "country_name": "United States"}}, {"ip_str": "13.251.110.117", "port": 11211, "location": {"city": "Singapore", "region_code": "00", "area_code": null, "longitude": 103.85579999999999, "country_code3": "SGP", "latitude": 1.2931000000000097, "postal_code": null, "dma_code": null, "country_code": "SG", "country_name": "Singapore"}}, {"ip_str": "185.60.135.107", "port": 11211, "location": {"city": null, "region_code": null, "area_code": null, "longitude": 37.60679999999999, "country_code3": "RUS", "latitude": 55.73859999999999, "postal_code": null, "dma_code": null, "country_code": "RU", "country_name": "Russian Federation"}}, {"ip_str": "118.178.129.156", "port": 11211, "location": {"city": null, "region_code": null, "area_code": null, "longitude": 113.72660000000002, "country_code3": "CHN", "latitude": 34.77250000000001, "postal_code": null, "dma_code": null, "country_code": "CN", "country_name": "China"}}, {"ip_str": "104.250.150.117", "port": 11211, "location": {"city": "Los Angeles", "region_code": "CA", "area_code": 213, "longitude": -118.27799999999999, "country_code3": "USA", "latitude": 34.058400000000006, "postal_code": "90017", "dma_code": 803, "country_code": "US", "country_name": "United States"}}, {"ip_str": "139.162.167.231", "port": 11211, "location": {"city": "Frankfurt", "region_code": "05", "area_code": null, "longitude": 8.684200000000004, "country_code3": "DEU", "latitude": 50.1155, "postal_code": "60313", "dma_code": null, "country_code": "DE", "country_name": "Germany"}}, {"ip_str": "192.95.33.113", "port": 11211, "location": {"city": "Montr\u00e9al", "region_code": "QC", "area_code": null, "longitude": -73.5747, "country_code3": "CAN", "latitude": 45.50399999999999, "postal_code": "H3A", "dma_code": null, "country_code": "CA", "country_name": "Canada"}}, {"ip_str": "211.159.188.196", "port": 11211, "location": {"city": "Beijing", "region_code": "22", "area_code": null, "longitude": 116.38889999999998, "country_code3": "CHN", "latitude": 39.928799999999995, "postal_code": null, "dma_code": null, "country_code": "CN", "country_name": "China"}}, {"ip_str": "172.104.79.171", "port": 11211, "location": {"city": "Tokyo", "region_code": "40", "area_code": null, "longitude": 139.7514, "country_code3": "JPN", "latitude": 35.685, "postal_code": "102-0082", "dma_code": null, "country_code": "JP", "country_name": "Japan"}}, {"ip_str": "188.165.232.76", "port": 11211, "location": {"city": null, "region_code": null, "area_code": null, "longitude": 2.3386999999999887, "country_code3": "FRA", "latitude": 48.85820000000001, "postal_code": null, "dma_code": null, "country_code": "FR", "country_name": "France"}}, {"ip_str": "185.26.122.217", "port": 11211, "location": {"city": "Saint Petersburg", "region_code": "66", "area_code": null, "longitude": 30.264199999999988, "country_code3": "RUS", "latitude": 59.89439999999999, "postal_code": "190981", "dma_code": null, "country_code": "RU", "country_name": "Russian Federation"}}, {"ip_str": "216.92.219.101", "port": 11211, "location": {"city": "Pittsburgh", "region_code": "PA", "area_code": 412, "longitude": -79.9791, "country_code3": "USA", "latitude": 40.42230000000001, "postal_code": "15203", "dma_code": 508, "country_code": "US", "country_name": "United States"}},